Place ID,Name,Latitude,Longitude,Address,Rating,Ratings count,Price range
ChIJI7EqcpTBpEwRxJUx5kD3N34,Tim Hortons,46.145031,-67.8410938,"45W5+2H Houlton, ME, USA",4.2,279,1
ChIJYyaIoBfCpEwRldwBrK31F2M,Elm Tree Diner,46.1180556,-67.8519444,"449X+66 Houlton, ME, USA",4.1,189,2
ChIJQ6cbURnCpEwRUFDX0eBMCec,Circle K,46.12331409999999,-67.8440368,"45F4+89 Houlton, ME, USA",4.9,8,1
ChIJK1O93vLBpEwRQ0_ev_nJO4k,McDonald's,46.1357092,-67.8400791,"45P5+7X Houlton, ME, USA",3.8,637,1
ChIJYwzKOx7CpEwRjFnaJ7hJAlE,Subway,46.1450184,-67.839614,"45W6+25 Houlton, ME, USA",4.4,184,1
ChIJpTwkURnCpEwRG7Dtk6tcnVk,Shell,46.12328900000001,-67.844113,"45F4+89 Houlton, ME, USA",3.7,34,2
ChIJB24D6PLBpEwRr-FLDs53Tb8,Domino's Pizza,46.1360901,-67.8389074,"45P6+CC Houlton, ME, USA",4.0,118,1
ChIJE6HJGvPBpEwRqYsz4FEuuWs,Circle K,46.1361186,-67.8399633,"45P6+C2 Houlton, ME, USA",4.5,2,1
ChIJiztBmJPBpEwRP1-fGvP-SLg,Shell,46.1419833,-67.8407333,"45R5+QP Houlton, ME, USA",4.1,31,2
ChIJz0nmlMBHs0wRR86t00r84Bs,Hart's Turkey Farm Restaurant,43.6475358,-71.49958269999999,"JGX2+25 Meredith, NH, USA",4.4,1732,2
ChIJf7-PE3FDs0wR0xVfkYveclQ,The Manor on Golden Pond,43.730451,-71.579528,"PCJC+55 Holderness, NH, USA",4.6,52,2
ChIJjZnoW_Rq4okR4aNQttjgJno,Buffalo Wild Wings,43.20781539999999,-71.52881049999999,"6F5C+4F Concord, NH, USA",4.0,1105,2
ChIJv9o6K9sn4okRmKta-TOhNBc,Subway,43.1106419,-71.9200716,"436H+7X Hillsboro, NH, USA",3.8,51,1
ChIJqypRnSM0s0wRoSJdEdFt7x8,Subway,43.5421712,-71.4653478,"GGRM+VV Laconia, NH, USA",4.0,145,1
ChIJe3p-aI1q4okREEiFWIEQ4KQ,Subway,43.2052482,-71.5364156,"6F47+3C Concord, NH, USA",3.8,95,1
ChIJKzZ98str4okRUCP-KVTev-k,Olive Garden Italian Restaurant,43.22184669999999,-71.4959338,"6GC3+PJ Concord, NH, USA",4.3,1723,2
ChIJsRw7yaUU4okRsCHKs7FHeVQ,Subway,43.2655808,-71.5865333,"7C87+69 Concord, NH, USA",3.5,71,1
ChIJ_2_Nmvc0s0wRMvwvnBsTjL8,Subway,43.5149274,-71.4913583,"GG75+XF Belmont, NH, USA",4.0,74,1
ChIJ4a3YEQ7WuIkRUeEKtjB2VCk,Seacrets,38.3745609,-75.0715707,"9WFH+R9 Ocean City, MD, USA",4.4,6779,2
ChIJia24ivTyuIkRr01NEgrFtAo,Subway,38.7187053,-75.5862925,"PC97+FF Bridgeville, DE, USA",3.6,31,1
ChIJKbFDX0--uIkRKnvhAmVOMyo,Dogfish Head Craft Brewery,38.7703656,-75.3108365,"QMCQ+4M Milton, DE, USA",4.8,722,2
ChIJlzc-nEG2uIkRI-eiJxxxIuo,Dogfish Head Brewings & Eats,38.7152015,-75.08716679999999,"PW87+34 Rehoboth Beach, DE, USA",4.5,1046,2
ChIJY0xu7H9PuIkRuag5IlmKP90,Suicide Bridge Restaurant,38.633278,-75.9469709,"J3M3+86 Hurlock, MD, USA",4.4,1503,2
ChIJfTOYtvQCuYkR9s9TuGwuths,Ruby Tuesday,38.397364,-75.566542,"9CWM+W9 Salisbury, MD, USA",4.1,635,2
ChIJGeUvQ-fQuIkRzIHUCL2wjoQ,Subway,38.4725712,-75.1042535,"FVFW+27 Selbyville, DE, USA",3.3,6,1
ChIJ34vFf5i3uIkRLQrg90pXsxY,Subway,38.7273195,-75.1319709,"PVG9+W6 Rehoboth Beach, DE, USA",3.1,12,1
ChIJZ6PwtkwouYkR-hzvrFMsqi8,Mione's Pizza & Italian Restaurant,38.3384129,-75.1075139,"8VQR+9X Ocean City, MD, USA",4.5,495,2
ChIJ01mZLxoEuYkRjdVRCNAtrDk,Ruby Tuesday,38.33093799999999,-75.611385,"89JQ+9C Salisbury, MD, USA",4.3,515,2
ChIJ6ZV5b4QCuYkRm5HfrcrmsiE,Chinatown Buffet,38.4196461,-75.56830029999999,"CC9J+VM Salisbury, MD, USA",3.9,1072,1
ChIJT4nVg6QUNIcRMsM6veihNio,Little Caesars Pizza,36.917583,-111.45763,"WG9R+2W Page, AZ, USA",3.7,114,1
ChIJ1z-AA6VsNIcRPPC1eaeMbA0,Subway,36.90731299999999,-111.4811466,"WG49+WG Page, AZ, USA",3.7,135,1
ChIJi6wzj68UNIcRh9sFZcbtRNQ,Dam Bar & Grille,36.9178676,-111.4596378,"WG9R+44 Page, AZ, USA",4.0,1197,2
ChIJBQp0W7sUNIcRMID1tYbl4dE,Ranch House Grille,36.9206118,-111.4581243,"WGCR+6Q Page, AZ, USA",4.3,1115,1
ChIJOUJXurAUNIcRAofJi8bttXs,Circle K,36.918813,-111.4603657,"WG9Q+GV Page, AZ, USA",3.3,30,1
ChIJ46Sb17oUNIcRjSDATAABfpQ,The Bowl,36.919875,-111.460535,"WG9Q+WQ Page, AZ, USA",4.0,177,1
ChIJG5fWAldrNIcRF_oIyBSV5Wg,Subway,36.9048123,-111.4872417,"WG37+W4 Page, AZ, USA",3.5,65,1
ChIJz5Z0aKQUNIcRmtE94foobB0,Aliberto's Mexican Restaurant,36.9164011,-111.4587846,"WG8R+HF Page, AZ, USA",4.3,90,1
ChIJ6chmi7QUNIcRj_5eWbkSfUQ,Denny's,36.923345,-111.4726295,"WGFG+8W Page, AZ, USA",3.5,1836,1
ChIJSe_QLFZrNIcRqqR7Rqy-bzE,Taco Bell,36.9058935,-111.4854289,"WG47+9R Page, AZ, USA",3.8,767,1
ChIJ8aGl96QUNIcRpEhyRyOojFk,Slackers,36.91699670000001,-111.4592888,"WG8R+Q7 Page, AZ, USA",4.4,929,2
ChIJAXDv66MUNIcRN8lNCfeBGkw,Fiesta Mexicana Restaurant,36.9160735,-111.4563291,"WG8V+CF Page, AZ, USA",4.3,1862,2
ChIJ99FXn7oUNIcRCUKvB6E3uhY,McDonald's,36.9056841,-111.4846344,"WG48+74 Page, AZ, USA",3.6,1452,1
ChIJi6wzj68UNIcRwUgYY_snt20,Blue Buddha Sushi Lounge,36.9175505,-111.4602186,"WG9Q+2W Page, AZ, USA",4.0,461,2
ChIJ-cKmIfTeooARS4fQw6vUtEI,Middlegate Station,39.2872127,-118.026985,"7XPF+V6 Middlegate, NV, USA",4.6,763,1
ChIJ7Zlwq_a9nYAR1baLB_93IjM,Subway,40.4091663,-120.6368328,"C957+M7 Susanville, CA, USA",3.4,16,1
ChIJb8IwLvG9nYAR-467EQuR-gU,Jack in the Box,40.408807,-120.6349656,"C958+G2 Susanville, CA, USA",3.4,567,1
ChIJo5zAouG9nYARlZzdRDRX3-k,Lassen Ale Works Boardroom,40.4021268,-120.6222519,"C92H+V3 Susanville, CA, USA",4.6,250,2
ChIJUXQRkva9nYARmxQZNw0z2KE,Lumberjack's,40.410717,-120.6360674,"C967+7H Susanville, CA, USA",3.9,750,2
ChIJHbW1ePC9nYARWnhDX2iVkhg,Whitehouse,40.407555,-120.631708,"C959+28 Susanville, CA, USA",4.4,149,2
ChIJP-CnM_C9nYARsySNPGGwzNI,Starbucks,40.40567899999999,-120.634131,"C948+78 Susanville, CA, USA",4.1,207,2
ChIJp7NV2fa9nYARmlO3nHPdyqs,Subway,40.40571319999999,-120.634242,"C948+78 Susanville, CA, USA",3.6,39,1
ChIJwduJjvW9nYARjC5HKoQQoK0,Panda Express,40.4122437,-120.6390875,"C966+V9 Susanville, CA, USA",3.7,380,1
ChIJv6xGCiSWnYAR7KWkpQ7mKwo,Port of Subs,40.4152468,-120.6491085,"C982+39 Susanville, CA, USA",4.2,135,1
ChIJg9F53yOWnYARnYGIwWxK4Og,Little Caesars Pizza,40.41465549999999,-120.647079,"C973+V5 Susanville, CA, USA",3.4,148,1
ChIJTR7v5DyWnYAR8YcFp-egiyI,Frosty Mill,40.4215474,-120.646191,"C9C3+JG Susanville, CA, USA",4.2,520,1
ChIJb4E4WPC9nYARwQlkrPeU15Q,Pizza Factory,40.4064644,-120.6324765,"C949+H2 Susanville, CA, USA",4.1,320,2
ChIJrXBjwf7HnYAR7Ym98AV-IrQ,Pizza Factory,40.30157450000001,-120.5241549,"8F2G+J8 Janesville, CA, USA",4.4,196,2
ChIJTVEhivW9nYARHmFwqXyiIwc,Round Table Pizza,40.4121282,-120.6379987,"C966+VR Susanville, CA, USA",3.7,205,2
ChIJKxhjlPa9nYAR1swa134kBCo,Taco Bell,40.4057278,-120.6333621,"C948+7M Susanville, CA, USA",3.4,455,1
ChIJDShXniGWnYARi1CBv7_rHpM,Happy Garden,40.4144301,-120.6456348,"C973+QP Susanville, CA, USA",4.7,593,2
ChIJq5Z4APC9nYARI5wDFDOQgYo,KFC,40.4058317,-120.6315322,"C949+89 Susanville, CA, USA",3.5,298,1
ChIJSbEzVySWnYARkC_WH1WXMao,Burger King,40.4155903,-120.6511158,"C88X+6H Susanville, CA, USA",3.4,419,1
ChIJGwDklPa9nYARlfdKa7kCd5o,McDonald's,40.4052543,-120.6330474,"C948+4Q Susanville, CA, USA",3.5,1049,1
ChIJfVvcyyZNzIcRWSDHYwWnAB0,Subway,35.3901052,-93.1115318,"9VRQ+29 Dover, AR, USA",4.1,90,1
ChIJxcX_UcyFzocRQEIjDwKnTHI,Subway,36.0127652,-93.1810895,"2R79+4H Jasper, AR, USA",4.2,141,1
ChIJrXeP-FmnxYcRlcxidcm63U0,Subway,35.5957914,-92.4560929,"HGWV+8H Clinton, AR, USA",4.4,133,1
ChIJz1gXgOlyzocRtNiFbeeehaE,Big Springs Trading Company,36.0157581,-92.7856223,"2687+8Q Saint Joe, AR, USA",4.6,128,2
ChIJxcQRqMoJzocRsvuRjYHa69E,Sonic Drive-In,35.90731969999999,-92.6591373,"W84R+W8 Marshall, AR, USA",4.1,280,1
ChIJoU7wZKf_0YcRgxxYmgdAP0o,Circle K,35.9072787,-92.6567711,"W84V+W7 Marshall, AR, USA",2.4,7,1
ChIJ0zSjV6f_0YcRhrAfrd8P9Dc,McDonald's,35.90727580000001,-92.6565457,"W84V+W9 Marshall, AR, USA",3.5,397,1
ChIJW68DpxD8zYcRFjj8UzeJHwI,Shell,35.8325474,-92.5690326,"RCMJ+29 Leslie, AR, USA",4.3,44,2
ChIJxehvemoIzocRcndENodp2b8,Marshall Restaurant,35.9113808,-92.63835549999999,"W966+HM Marshall, AR, USA",3.9,89,1
ChIJGdGjqTj8zYcR5s1aYczkZj8,Ryan's Main Street Bar & Grill,35.8285637,-92.5593643,"RCHR+C7 Leslie, AR, USA",4.6,272,2
ChIJI29mX0h10ocRvVETYSazeus,McDonald's,35.59548349999999,-92.4573784,"HGWV+52 Clinton, AR, USA",3.5,947,1
ChIJvUHX4iMbzocRpFDB3uqfOzY,Buffalo Point Cabins & Restaurant,36.0815311,-92.56436769999999,"3CJP+J7 Yellville, AR, USA",4.6,129,1
ChIJ4Ug0_MIMzocRhtjBKSqBHtU,"Fergusons Country Store & Restaurant, solid Cherry & Oak Furniture",36.0001377,-92.76235,"262Q+33 Saint Joe, AR, USA",4.5,403,2
ChIJgwg1LIUK0ocRGlLsh-R8_W4,Western Sizzlin Steak House,35.57402579999999,-92.45242309999999,"HGFX+J2 Clinton, AR, USA",3.7,636,2
ChIJZY5eF9KFzocRbFstoUXNvFE,Ozark Cafe,36.008461,-93.187027,"2R57+95 Jasper, AR, USA",4.7,1517,1
ChIJc9SEDTz8zYcRO2cEVzcJj08,Skylark Cafe,35.8303237,-92.55748090000002,"RCJV+42 Leslie, AR, USA",4.8,232,2
ChIJf3c9oNbY-4YR81f_1LKibYI,Jason's Deli,32.039813,-102.1122718,"2VQQ+W3 Midland, TX, USA",4.2,443,2
ChIJ3Uyy3QvY-4YRS6Xz8TZ3Vek,Little Caesars Pizza,31.97611,-102.07562,"XWGF+CQ Midland, TX, USA",4.4,200,1
ChIJNWKXV4fY-4YRtq1nD95Cg24,Subway,32.0034045,-102.0780473,"2W3C+9Q Midland, TX, USA",3.9,160,1
ChIJA13VIkTZ-4YRMVMr3YysdXI,Saltgrass Steak House,32.02613319999999,-102.1468797,"2VG3+F6 Midland, TX, USA",4.0,1611,2
ChIJO7nydt3Y-4YRjhOoBgbtNdY,Subway,32.02391720000001,-102.1088953,"2VFR+HC Midland, TX, USA",4.0,113,1
ChIJjVtziEXZ-4YRAyoXc94a38Q,Subway,32.0297878,-102.1487361,"2VH2+WG Midland, TX, USA",2.9,35,1
ChIJmXxl_gnY-4YRluEYe4xcqA0,Subway,31.9751477,-102.0710957,"XWGH+3H Midland, TX, USA",2.8,37,1
ChIJoX2ZtcvY-4YRzJuL39mQeoc,The Red Plate Diner,32.04208709999999,-102.0978258,"2WR2+RV Midland, TX, USA",4.5,318,1
ChIJgWXAF7LY-4YR0DY4c-NJXyQ,Subway,32.0426015,-102.0846532,"2WV8+24 Midland, TX, USA",4.4,27,1
ChIJ2QillQvZ-4YRUEBGUaogW_g,Subway,32.0026033,-102.1363614,"2V37+2F Midland, TX, USA",4.0,98,1
ChIJY8NuTiXZ-4YRON9JebGtBvU,Subway,32.03130169999999,-102.1278993,"2VJC+GR Midland, TX, USA",3.9,80,1
ChIJMXrJznjY-4YRKbMFBEZIQ64,Wall Street Bar & Grill,31.9976539,-102.0736312,"XWXG+3G Midland, TX, USA",4.3,569,2
ChIJESuapkjZ-4YRWoW1NJIg694,On The Border Mexican Grill & Cantina,32.0309267,-102.1451926,"2VJ3+9W Midland, TX, USA",3.7,967,2
ChIJr_axWX_Z-4YRBXSD8qZqpgg,Clear Springs Restaurant,31.9956672,-102.1583984,"XRWR+7J Midland, TX, USA",4.4,1796,2
ChIJbazaOo84NoYRBdcavrbxK-Y,Jason's Deli,32.5434537,-94.748937,"G7V2+9C Longview, TX, USA",4.4,969,2
ChIJE-B2FNU4NoYRMUzh8uOvEu0,Wingstop,32.5270055,-94.7819323,"G6G9+R6 Longview, TX, USA",4.0,252,2
ChIJ334CioU4NoYRQild5d_2HO4,Subway,32.5009154,-94.7380895,"G726+9Q Longview, TX, USA",3.9,236,1
ChIJnwlAVCL6NYYRFfRm5AVJKHQ,Subway,33.13485050000001,-94.96932160000001,"42MJ+W7 Mount Pleasant, TX, USA",3.6,51,1
ChIJBQAGcO04NoYRYTxHq7ZJcsw,Butcher Shop,32.5051861,-94.75050829999999,"G64X+3Q Longview, TX, USA",4.4,2229,2
ChIJk8SrSkNHNoYRKmQR_YSjh4Y,Subway,32.5209739,-94.717314,"G7CM+93 Longview, TX, USA",4.3,117,1
ChIJPQc8TM4bNoYRnyTH-GO-wC4,Subway,32.7251177,-94.942304,"P3G5+23 Gilmer, TX, USA",4.3,154,1
ChIJvzXWYUo_NoYR_b5la36FdNs,Olive Garden Italian Restaurant,32.541113,-94.747323,"G7R3+C3 Longview, TX, USA",4.2,2090,2
ChIJN9jRhIYjNoYR4BNFNpjba3U,Subway,32.5359737,-94.9424214,"G3P5+92 Gladewater, TX, USA",4.3,167,1
ChIJL6Rb2287NoYRJK3exmoSzPs,Subway,32.5188732,-94.85736519999999,"G49V+G3 White Oak, TX, USA",4.1,107,1
ChIJ1RxEN0o_NoYRFXmuK3f5htA,Chili's Grill & Bar,32.542955,-94.7464509,"G7V3+5C Longview, TX, USA",4.0,1143,2
ChIJHW1EJDQ_NoYRNG53NouwLGo,Papacita's,32.54392,-94.751778,"G6VX+H7 Longview, TX, USA",4.4,2970,2
ChIJGQBhs0PeSYYRFgNnOwYra0c,Subway,32.5842116,-95.12233289999999,"HVMH+M3 Big Sandy, TX, USA",3.9,106,1
ChIJ5Uxl0jM_NoYREIDApNlOn9Q,Cafe Barron's,32.543222,-94.75508359999999,"G6VV+7X Longview, TX, USA",4.4,173,2
ChIJE6W_DoQ4NoYRqXVWYd-gIhc,Taco Bueno,32.500365,-94.733413,"G728+4J Longview, TX, USA",3.8,538,1
ChIJydb7djM_NoYR5hB3v-2g8oo,Red Lobster,32.5404657,-94.7548156,"G6RW+53 Longview, TX, USA",3.9,1136,2
ChIJtevCi1I_NoYR6BCChLKEZHw,Texas Roadhouse,32.541454,-94.7368702,"G7R7+H7 Longview, TX, USA",4.6,3143,2
ChIJLbfGs0sMklQRCo_Sqvc7TFA,Ocean Crest Resort,47.2236909,-124.2088168,"6QFR+FF Moclips, WA, USA",4.4,767,2
ChIJ66oeq_tBklQRdaO3Z9_adJw,Subway,47.00776279999999,-124.1657509,"2R5M+4M Ocean Shores, WA, USA",3.9,181,1
ChIJqzVuagA6klQRRAYpFTp6zok,Subway,46.97004679999999,-123.8029696,"X5CW+2R Aberdeen, WA, USA",3.8,52,1
ChIJc4J-59S2k1QRZOlbErVEPPQ,Subway,46.68218650000001,-123.7382908,"M7J6+VM Raymond, WA, USA",4.1,48,1
ChIJWxggURE6klQRPOeGPvP8-HM,Papa Murphy's | Take 'N' Bake Pizza,46.9768479,-123.8034658,"X5GW+PJ Aberdeen, WA, USA",4.4,208,1
ChIJm5YaMf8uklQRP__AHb9GTqo,Subway,46.9796675,-123.6010343,"X9HX+VH Montesano, WA, USA",4.3,135,1
ChIJt0YcLxE6klQRnl1eGKgoVkw,Subway,46.9766682,-123.8051679,"X5GV+MW Aberdeen, WA, USA",4.2,287,1
ChIJecEq7_RPklQRQGb2Ehi9mwI,Subway,46.8593884,-124.0989569,"VW52+QC Westport, WA, USA",3.7,47,1
ChIJswX4HI45klQR_gl4rkZ2n40,Chinese Village,46.97486199999999,-123.846497,"X5F3+WC Aberdeen, WA, USA",4.1,348,2
ChIJsQHZuuNBklQRe9YyqJswfYc,Los IV Hermanos,47.0122387,-124.1614915,"2R6Q+VC Ocean Shores, WA, USA",4.4,721,2
ChIJRQ8AwAY6klQR8QpZwjdtLmE,7-Eleven,46.965577,-123.8029459,"X58W+6R Aberdeen, WA, USA",3.3,26,1
ChIJEaYm_fRPklQRLwru6LAXjHY,Shell,46.8591726,-124.0988766,"VW52+MC Westport, WA, USA",3.6,59,2
ChIJRSDusuNBklQRc5lfum9VRJA,Ocean Beach Roasters,47.0130034,-124.1626972,"2R7P+6W Ocean Shores, WA, USA",4.6,768,2
ChIJZcQKWhE6klQR7m1VRD08P48,Mazatlan Restaurant #12,46.97577889999999,-123.803418,"X5GW+8J Aberdeen, WA, USA",4.1,464,2
ChIJM4phMJg5klQRCaFpdVhkd64,Subway,46.9749004,-123.8626875,"X4FP+XW Hoquiam, WA, USA",4.1,246,1
ChIJGf0DMgg5klQRew43IOR1L_o,The Jitter House,46.9784215,-123.885635,"X4H7+9P Hoquiam, WA, USA",4.8,295,1
ChIJR2-ASSanJoYRnhK5Ua0L8tA,The Chimes,30.4173071,-91.17624219999999,"CR8F+WG Baton Rouge, LA, USA",4.5,1990,2
ChIJv6vY0fykJoYRsQqYmUDlAAU,Raising Cane's Chicken Fingers,30.388884,-91.087733,"9WQ6+HW Baton Rouge, LA, USA",4.5,219,1
ChIJ_w86ucmmJoYRQ8xx7vblHtQ,Parrain's Seafood Restaurant,30.42363769999999,-91.1555309,"CRFV+FQ Baton Rouge, LA, USA",4.6,4512,2
ChIJOdwyHwelJoYRXYanIZpFrbE,Texas de Brazil,30.379293,-91.09375700000001,"9WH4+PF Baton Rouge, LA, USA",4.5,1141,3
ChIJB91xiHWkJoYRVbq_7V2umlk,Bonefish Grill,30.4311088,-91.113067,"CVJP+CQ Baton Rouge, LA, USA",4.3,516,2
ChIJ3_mE4NWkJoYRlJ-EYcdqzZA,Olive Garden Italian Restaurant,30.3864498,-91.0626325,"9WPP+HW Baton Rouge, LA, USA",4.3,2083,2
ChIJ-R-bCm2mIIYRJZiyq3CDFi8,Mike Anderson's - Baton Rouge,30.388374,-91.169461,"9RQJ+86 Baton Rouge, LA, USA",4.3,1236,2
ChIJbZszGgSkJoYRnAZoxSj29U0,Jason's Deli,30.4246736,-91.1294747,"CVFC+V6 Baton Rouge, LA, USA",4.4,637,2
ChIJYWXvpC-ZJoYRigNU_wqvwKM,Subway,30.5795633,-91.13093959999999,"HVH9+RJ Baker, LA, USA",3.6,37,1
ChIJKbmj4_meJoYR5e28nWr9rXo,Subway,30.5771349,-91.1699167,"HRGJ+V2 Baker, LA, USA",4.2,116,1
ChIJbd6TyLemJoYRIJcQesV28Y8,Acme Oyster House,30.422791,-91.154766,"CRFW+43 Baton Rouge, LA, USA",4.3,1507,2
ChIJ05ujfXWkJoYR_IZ73VbrfYY,P.F. Chang's,30.43112279999999,-91.1142527,"CVJP+C7 Baton Rouge, LA, USA",4.3,844,2
ChIJadUG8o1dBYcRtyAK2Ygss4k,Hotel Eklund Restaurant,36.45169999999999,-103.1848028,"FR28+M3 Clayton, NM, USA",4.0,406,2
ChIJvYJ2V4BdBYcRSI1PFFuD7zk,Subway,36.4378688,-103.1763974,"CRQF+4C Clayton, NM, USA",3.7,244,1
ChIJP9Jq_IVdBYcRuQs0tje8lgs,Godfather's Pizza Express,36.444935,-103.1798636,"CRVC+X3 Clayton, NM, USA",4.0,171,2
ChIJ1T_iV8e2BYcRUkiMRmMHlW0,Twisted Elms Golf Club,36.04247039999999,-102.5599419,"2CRR+X2 Dalhart, TX, USA",4.5,176,2
ChIJV2JX4oBdBYcRtuuSnCRdzCA,"Sí, Señor Tacos",36.43871419999999,-103.1768565,"CRQF+F7 Clayton, NM, USA",4.4,247,1
ChIJP9_U-Y1dBYcRxN4it33RyC0,Mock's Crossroads Coffee Mill,36.451129,-103.185416,"FR27+FR Clayton, NM, USA",4.7,201,1
ChIJtcowG7BvBYcRZFLBlJECnHE,Maria's Country Kitchen,36.3778903,-103.023952,"9XHG+5C Texline, TX, USA",4.4,207,1
ChIJYzmFdIZdBYcRbmqMxFdVllI,87 Restaurant,36.44432289999999,-103.1794752,"CRVC+P6 Clayton, NM, USA",4.2,683,2
ChIJvb819Y5dBYcRmKoIqbjo9DE,Pizza Hut,36.4488261,-103.1828964,"CRX8+GR Clayton, NM, USA",3.3,206,1
ChIJmzokTUDwwIcRwp_X-3ZvQMw,Jack Stack Barbecue | Freight House,39.08725199999999,-94.585815,"3CP7+WM Kansas City, MO, USA",4.6,6193,2
ChIJeelZFz_uwIcR-JdBeZPhThU,Joe's Kansas City Bar-B-Que,39.04444819999999,-94.6207405,"29VH+QP Kansas City, KS, USA",4.8,10055,2
ChIJ66e8kTaEwIcRZVlRJEfgWmc,Subway,39.1157418,-94.94104039999999,"4385+7H Bonner Springs, KS, USA",3.7,78,1
ChIJqYAqX5n6wIcR3g1EmKf9Il4,Arthur Bryant’s Barbeque,39.0914829,-94.556056,"3CRV+HH Kansas City, MO, USA",4.4,5732,2
ChIJxbu2nD_wwIcRp1jUF0d0zw8,Pierpont's at Union Station,39.08532819999999,-94.58557839999999,"3CP7+4Q Kansas City, MO, USA",4.5,910,3
ChIJGYjixLjvwIcRSCVB3jzB5QY,Jack Stack Barbecue,39.0412556,-94.5886417,"2CR6+GG Kansas City, MO, USA",4.5,1618,2
ChIJJdyGk7mOwIcRiEkrrCm6XqY,Dave & Buster's,39.1266992,-94.82598039999999,"45GF+MJ Kansas City, KS, USA",4.2,2207,2
ChIJmzokTUDwwIcR7_VCw9FDFMk,Lidia’s,39.08741000000001,-94.5852962,"3CP7+XV Kansas City, MO, USA",4.4,2284,3
ChIJ_QWmWrDowIcRB-5glA2D3LA,B.B.'s Lawnside BBQ,38.97280109999999,-94.57461819999999,"XCFG+45 Kansas City, MO, USA",4.5,2291,2
ChIJPxDuyLjvwIcRfS2ZpEMTW_0,The Cheesecake Factory,39.04169829999999,-94.58868249999999,"2CR6+MG Kansas City, MO, USA",4.2,2380,2
ChIJTZe4NL7rwIcRjm3zES6zEKY,Jack Stack - Overland Park,38.9558667,-94.6684722,"X84J+8J Overland Park, KS, USA",4.6,3751,2
ChIJA0-NibjvwIcRCyDItwP1ohc,Buca di Beppo Italian Restaurant,39.0425894,-94.5906364,"2CV5+2P Kansas City, MO, USA",4.1,1416,2
ChIJxcU3dxXwwIcR9YHEsRXeGd0,Fritz's,39.0825886,-94.5826944,"3CM8+2W Kansas City, MO, USA",3.9,1033,1
ChIJ29SyTWnwwIcRYYYjzNhRpF4,Grinders Pizza,39.0914193,-94.57812059999999,"3CRC+HQ Kansas City, MO, USA",4.4,2785,2
ChIJp_LqrQqVwIcRnz_d_ok9xMg,Joe's Kansas City Bar-B-Que,38.9111945,-94.7689803,"W66J+FC Olathe, KS, USA",4.7,4534,2
ChIJUz1nq-f1wIcRwScXfrzCri4,Bonefish Grill,39.2093382,-94.65334829999999,"685W+PM Kansas City, MO, USA",4.4,988,2
ChIJOaH2MobwwIcRpWNKmpATnGs,Garozzo's Downtown,39.10934069999999,-94.57202869999999,"4C5H+P5 Kansas City, MO, USA",4.6,2079,2
ChIJ7VSeCsPr_YYRgYgdjDVV98U,Subway,33.5962398,-102.3613017,"HJWQ+FF Levelland, TX, USA",2.9,14,1
ChIJidQ-Zsrr_YYRhjPxaIMFHNs,Subway,33.5783991,-102.3681584,"HJHJ+9P Levelland, TX, USA",3.5,104,1
ChIJO6GaNsfr_YYRGrVmZeM3Scw,Sonic Drive-In,33.59113720000001,-102.3680432,"HJRJ+FQ Levelland, TX, USA",3.3,439,1
ChIJF0vKQsjr_YYRm5iA2EtXfWg,Republic of Texas Sports Bar,33.5846932,-102.3670976,"HJMM+V5 Levelland, TX, USA",4.0,161,2
ChIJeXQ0vsDr_YYRY7z1G-WPJvU,Bush's Chicken,33.5928341,-102.3680332,"HJVJ+4Q Levelland, TX, USA",4.3,331,1
ChIJM2-Ixcfr_YYRRQbJr1Au3nw,McDonald's,33.587002,-102.367183,"HJPM+R4 Levelland, TX, USA",3.4,706,1
ChIJpbhEu8nr_YYRjLuoBUCy19E,Little Caesars Pizza,33.58240199999999,-102.367232,"HJJM+X4 Levelland, TX, USA",3.9,241,1
ChIJBWI-POG-_YYRhD9T0lFN9Zo,Subway,33.4570157,-102.4883367,"FG46+RM Sundown, TX, USA",3.6,5,1
ChIJfXH-dekJAocRmdEQ1HdKHZk,Subway,33.9028592,-102.3267113,"WM3F+48 Littlefield, TX, USA",3.3,38,1
ChIJWSxQEOsJAocRM_FabK9qwwk,Classic Pizza,33.9075,-102.3277778,"WM4C+XV Littlefield, TX, USA",4.5,78,1
ChIJTVU9M5YJAocR82BJYTbk360,Asian Cuisine,33.9175883,-102.3245601,"WM9G+25 Littlefield, TX, USA",4.4,144,1
ChIJVxcYjMnr_YYRJqSesBJQFMM,Pizza Hut,33.5945117,-102.3619144,"HJVQ+R6 Levelland, TX, USA",3.8,264,1
ChIJpbXt5cDr_YYRTm6vKUv6PqY,Taqueria Guadalajara,33.59345329999999,-102.3671833,"HJVM+94 Levelland, TX, USA",4.2,571,2
ChIJI-K_kP3EVYYRPXOwCKifqaE,Subway,32.8849715,-100.1269524,"VVMF+X6 Hamlin, TX, USA",4.6,58,1
ChIJDe_3ZPzEVYYREGc3AWe40Ao,Pied Piper Pizza Pro & Deli,32.8842414,-100.1304333,"VVM9+MR Hamlin, TX, USA",4.6,123,1
ChIJ0Us2du6WVYYRV0aaPacZIXY,Dairy Queen Store,33.1432508,-100.2278366,"4QVC+8V Aspermont, TX, USA",3.9,155,1
ChIJ44ffO0bwVYYR2uqcMoHeVeI,Dairy Queen Store,32.851117,-100.466079,"VG2M+CH Rotan, TX, USA",4.0,133,1
ChIJ5_JAmv3EVYYRyMbaWzn2D9g,Dairy Queen Store,32.883949,-100.126731,"VVMF+H8 Hamlin, TX, USA",3.7,141,1
ChIJY7taSulAZlMRQghrA-y-cl8,Nite Owl & Back Room Restaurants,48.37010459999999,-114.1885113,"9RC6+2H Columbia Falls, MT, USA",4.4,1580,2
ChIJDwk7uOpQZlMRmfiZLo0t9mY,Little Caesars Pizza,48.2216072,-114.2764806,"6PCF+JC Kalispell, MT, USA",3.8,119,1
ChIJlU-aDL5QZlMRCzMEl5hw864,Subway,48.20173269999999,-114.3192815,"6M2J+M7 Kalispell, MT, USA",4.1,180,1
ChIJGVZnqW9QZlMR2d5-oihN1Aw,Subway,48.2146723,-114.2754383,"6P7F+VR Evergreen, MT, USA",4.0,114,1
ChIJqWl5uJVQZlMRF5ZP9KO9Z-E,Moose's Saloon,48.2017065,-114.3147062,"6M2P+M4 Kalispell, MT, USA",4.5,1520,1
ChIJ-c5MVtxQZlMROLA4FlSZU2E,The Montana Club Restaurant,48.1858026,-114.3079221,"5MPR+8R Kalispell, MT, USA",4.3,1649,2
ChIJqculP99QZlMRLT_2leDh0Lc,Blue Canyon Kitchen and Tavern,48.18025300000001,-114.304032,"5MJW+49 Kalispell, MT, USA",3.0,71,2
ChIJ46GN8ZNQZlMRKhSUNRbH0cM,Papa John's Pizza,48.2033288,-114.3097275,"6M3R+84 Kalispell, MT, USA",3.8,144,1
ChIJxXFPS7JpZlMRfakYCIvuv7s,MacKenzie River Pizza Co.,48.41226769999999,-114.3364524,"CM67+WC Whitefish, MT, USA",4.2,499,2
ChIJRbT9zpRQZlMRAToRF6BOkK0,Papa Murphy's | Take 'N' Bake Pizza,48.19916569999999,-114.3095853,"5MXR+M5 Kalispell, MT, USA",4.5,240,1
ChIJHd3UG2ZaZlMRxz67QTCGAxk,Panda Express,48.2327108,-114.3282309,"6MMC+3P Kalispell, MT, USA",4.2,622,1
ChIJdTDtqK1pZlMRhy6qjggUXcw,Piggyback Barbeque,48.4159829,-114.3413717,"CM85+9F Whitefish, MT, USA",4.1,534,2
ChIJC5tK6pNQZlMRWQFk00Ru_90,Domino's Pizza,48.2326213,-114.3281462,"6MMC+2P Kalispell, MT, USA",3.4,207,1
ChIJt0sB9QhBZlMRK2wmX3PYqso,Dairy Queen Grill & Chill,48.3709319,-114.1905772,"9RC5+9Q Columbia Falls, MT, USA",3.9,258,1
ChIJDaaj5Y75o1QREzzNnzZCnA0,Subway,45.4260952,-117.2794976,"CPGC+C6 Enterprise, OR, USA",4.3,43,1
ChIJG9VNHIz5o1QRho6rVTE7rtg,Heavenly's,45.42619800000001,-117.282876,"CPG8+FR Enterprise, OR, USA",4.2,195,2
ChIJifk97TcPpFQRvJ7J7WVgu1o,Glacier Ridge Grill & General Store,45.28037639999999,-117.2073343,"7QJV+53 Joseph, OR, USA",4.6,57,1
ChIJC07c4o75o1QRuJQl-b0exhI,Red Rooster Cafe,45.425706,-117.280782,"CPG9+7M Enterprise, OR, USA",4.5,168,2
ChIJ8_kQ55b5o1QRa15xUCMVHcA,Terminal Gravity Brewery & Pub,45.4186616,-117.2713226,"CP9H+FF Enterprise, OR, USA",4.6,663,2
ChIJp6ZC7_joo1QRUkjCS8NNlIY,Main Street Grill,45.5699797,-117.5274676,"HF9F+X2 Wallowa, OR, USA",4.5,106,2
ChIJ1SNeyO8HpFQRbpsbFW9SOt0,Embers Brewhouse,45.3537371,-117.2296232,"9Q3C+F5 Joseph, OR, USA",4.5,507,2
ChIJS20Wb1Xoo1QRt_wi5WMEwbQ,Little Bear Drive-In,45.5704684,-117.536111,"HFC7+5H Wallowa, OR, USA",4.6,197,2
ChIJ_YW_Le4HpFQRX2KpPHlz_FM,R & R Drive in Inc,45.3544845,-117.2289949,"9Q3C+QC Joseph, OR, USA",4.7,261,2
ChIJh94Hme8HpFQRVhJ0Hzgn3Xg,La Laguna Family Mexican Restaurant,45.35720999999999,-117.2302332,"9Q49+VW Joseph, OR, USA",4.5,141,2
ChIJB2ZTofEHpFQR_pwmUAAqxow,La Laguna,45.3572703,-117.2302878,"9Q49+WV Joseph, OR, USA",4.3,85,2
ChIJZxm4u-8HpFQRDBtf532K44o,Outlaw Restaurant,45.3531341,-117.2295837,"9Q3C+75 Joseph, OR, USA",4.1,189,2
ChIJAUbC2-8HpFQRc_Mzh--3QNQ,Cheyenne Cafe,45.35414369999999,-117.2301326,"9Q39+MW Joseph, OR, USA",4.6,234,1
ChIJWSkleO8HpFQRP16xJH7HvGM,Old Town Cafe,45.3519693,-117.2296444,"9Q2C+Q4 Joseph, OR, USA",4.8,200,2
ChIJPZ5Y3HMPpFQR7fSSqAkTOmA,Summit Grill,45.2626983,-117.1801536,"7R79+3W Joseph, OR, USA",4.3,206,2
ChIJK89UAh2r7oARDc24Ek3rrNQ,Pea Soup Andersen's,34.6140583,-120.1927651,"JR74+JV Buellton, CA, USA",4.2,2348,2
ChIJhc-LVqRU6YARVnR6w686Zuk,Paula's Pancake House,34.5963218,-120.1440913,"HVW4+G9 Solvang, CA, USA",4.4,677,2
ChIJiyuwVj2r7oARzLrfTYwkwIk,Hitching Post 2,34.60870250000001,-120.1818173,"JR59+F7 Buellton, CA, USA",4.4,767,3
ChIJp4eMRqFU6YARNtEcn9lm370,Mirabelle Inn & Restaurant,34.593852,-120.140591,"HVV5+GQ Solvang, CA, USA",4.7,79,3
ChIJR2j2b6FU6YARrWqceFczMew,Solvang Restaurant,34.5945805,-120.1391826,"HVV6+R8 Solvang, CA, USA",4.3,1542,2
ChIJlR4Doik-7IARQFOOKtPG7C4,Hitching Post,34.838302,-120.5303715,"RFQ9+8V Casmalia, CA, USA",4.7,629,3
ChIJVU7OWjMZ7IAR81WxczdXf_M,McDonald's,34.6612907,-120.4659281,"MG6M+GJ Lompoc, CA, USA",3.2,99,1
ChIJI_QIK7Ye7IARUucGOj4PDRk,Subway,34.6562901,-120.4584931,"MG4R+GJ Lompoc, CA, USA",3.9,76,1
ChIJGywt7A5U6YARKoE6vrV7zSo,Dos Carlitos Restaurant & Tequila Bar,34.6125512,-120.0820044,"JW79+25 Santa Ynez, CA, USA",4.6,475,2
ChIJO1f6MAgZ7IARC5GrTn2xv1g,Subway,34.7006721,-120.4680021,"PG2J+7Q Lompoc, CA, USA",4.0,34,1
ChIJCxLlBpEe7IARJGORwUG4PxI,Subway,34.6386571,-120.4505288,"JGQX+FQ Lompoc, CA, USA",4.2,163,1
ChIJ-xxFh0gE7IARfW3GDCwqHl8,Subway,34.74414899999999,-120.2756069,"PPVF+MQ Los Alamos, CA, USA",3.9,64,1
ChIJ5UhOuMwe7IARUbvPZ_Scrm4,Subway,34.6611728,-120.4658426,"MG6M+FM Lompoc, CA, USA",4.1,97,1
ChIJ62yg8wVU6YAR-ZNG0pul0UA,Trattoria Grappolo,34.61320180000001,-120.077278,"JW7F+73 Santa Ynez, CA, USA",4.5,259,2
ChIJ0c9oCI3NXVMRxi5GuI6Nywk,Red Robin Gourmet Burgers and Brews,46.8450655,-114.0285964,"RXWC+2H Missoula, MT, USA",4.2,947,2
ChIJHSLQtlG3XlMRfDTZmhnJ8s8,Subway,46.2613502,-114.1568726,"7R6V+G7 Hamilton, MT, USA",3.9,142,1
ChIJfQztwRycXlMReW7a4-cf2G0,Subway,46.5239463,-114.1149528,"GVFP+H2 Stevensville, MT, USA",4.0,51,1
ChIJByFjEOO6XlMR0STw0nLgAfc,Subway,46.3127614,-114.1144929,"8V7P+46 Corvallis, MT, USA",4.1,106,1
ChIJ2ZUfmFgrXFMRMyo1UYNt4tk,Lolo Creek Steakhouse Inc,46.7572459,-114.0880857,"QW46+VQ Lolo, MT, USA",4.7,803,3
ChIJPb45yK8sXFMRV1z9r1ryq6Y,Subway,46.7647397,-114.079828,"QW7C+V3 Lolo, MT, USA",4.0,81,1
ChIJVVtan7nNXVMRMfOBtbu-lEw,Subway,46.8491389,-113.9978096,"R2X2+MV Missoula, MT, USA",4.0,89,1
ChIJ0c9oCI3NXVMR3gv3HIdfcow,Noodle Express,46.84503549999999,-114.0287628,"RXWC+2F Missoula, MT, USA",4.1,182,2
ChIJh0FS25LNXVMRjGt7EPn_ZB0,The Montana Club Restaurant,46.84636560000001,-114.020452,"RXWH+GR Missoula, MT, USA",4.2,1191,2
ChIJY0nZ0U-3XlMROFWgE0XbL5E,BJ'S Restaurant,46.255454,-114.156531,"7R4V+59 Hamilton, MT, USA",4.1,475,2
ChIJf_C2mOrNXVMRPgCDtDemyrM,China Garden Restaurant,46.8514889,-114.0122944,"VX2Q+H3 Missoula, MT, USA",4.4,480,2
ChIJuRBRJG_SXVMR26-269xaj6Y,Pizza Hut,46.8358496,-114.0428415,"RXP4+8V Missoula, MT, USA",4.1,239,1
ChIJz1ZI2fXNXVMRIwMLHmm1rx8,Starbucks,46.848499,-114.038867,"RXX6+9F Missoula, MT, USA",4.2,360,2
ChIJ4W1j6TgoXFMRjDJD23cDUCg,Subway,46.6349031,-114.0770167,"JWMF+X5 Florence, MT, USA",3.6,46,1
ChIJ572jyCrMXVMR2saqPkBF1oo,Biga Pizza,46.8718324,-113.9974375,"V2C3+P2 Missoula, MT, USA",4.7,741,2
ChIJY-V6LvyC34YRFB3AmYxDZDs,Subway,33.1495512,-107.2478081,"4QX2+RV Truth or Consequences, NM, USA",4.0,219,1
ChIJcYTcMUqs34YRgH8NPOTza4k,Sparkys,32.6655556,-107.1536111,"MR8W+6H Hatch, NM, USA",4.7,2609,2
ChIJY-V6LvyC34YRDo0v_2i5p3A,Sonic Drive-In,33.1523992,-107.2468762,"5Q23+X6 Truth or Consequences, NM, USA",3.9,806,1
ChIJ0c6FYwZ434YRGGV9N8xj27A,Shell,33.1156043,-107.295235,"4P83+6W Williamsburg, NM, USA",3.7,53,2
ChIJD-mwrcSC34YRf_CtYAn_3y8,Grapevine Bistro,33.1286433,-107.2550656,"4PHV+FX Truth or Consequences, NM, USA",4.5,227,1
ChIJd81kNsCD34YRAKRDtmhx9Sg,Bigfoot Restaurant,33.1841636,-107.2222344,"5QMH+M4 Elephant Butte, NM, USA",4.5,238,1
ChIJV1wZ6sOD34YRHaDgM5jV96c,Casa Taco,33.189239,-107.223668,"5QQG+MG Elephant Butte, NM, USA",4.4,558,1
ChIJw2rOzfiC34YRKz4kNVTFnXw,Denny's,33.15592809999999,-107.2490609,"5Q42+99 Truth or Consequences, NM, USA",3.9,811,1
ChIJ8__JejGs34YRi3HNZBMDqYA,Subway,32.67175949999999,-107.1533553,"MRCW+PM Hatch, NM, USA",4.1,27,1
ChIJSxw_Dkqs34YRd7sXLM1trM4,B & E Burritos,32.6674002,-107.1537224,"MR8W+XG Hatch, NM, USA",4.5,199,1
ChIJXWb6o0ms34YRoNzrw9WMzZQ,Valley Cafe,32.6654146,-107.1562413,"MR8V+5G Hatch, NM, USA",4.5,240,1
ChIJbzWpS_yC34YRbWxb98kiwP4,Pizza Hut,33.1506476,-107.2465769,"5Q23+79 Truth or Consequences, NM, USA",3.7,325,1
ChIJ3a8l4uaC34YR5gF4YZ_vjyc,Pacific Grill,33.1382489,-107.2509858,"4PQX+7J Truth or Consequences, NM, USA",4.6,295,2
ChIJZbtqcbqC34YR8XN58ZXW2jU,Tony's Mexican Restaurant,33.12140310000001,-107.2744858,"4PCG+H6 Truth or Consequences, NM, USA",4.5,580,1
ChIJW7ceBbqC34YR2Y2dOo4qo6Y,Carmen's Kitchen,33.1215065,-107.2729892,"4PCG+JR Truth or Consequences, NM, USA",4.4,222,1
ChIJvwjlLAfLRIYRQW4Lo2_CPNU,Subway,38.2383259,-87.5674781,"6CQM+82 Fort Branch, IN, USA",4.1,153,1
ChIJr-XmT6f_bYgRYhN49TI9Yec,Subway,38.65920469999999,-87.50841729999999,"MF5R+MJ Vincennes, IN, USA",4.0,177,1
ChIJ93Y-4IDGcYgRNmby6tKS39I,Subway,38.1711867,-87.7804378,"56C9+FR Poseyville, IN, USA",3.9,48,1
ChIJsXeUUG3hcYgRCDglAIrHw9k,Subway,38.3556659,-87.5454385,"9F43+7R Princeton, IN, USA",4.2,209,1
ChIJQ5rHKQkXbogRR7Il8iXJ5io,Subway,38.33409870000001,-87.35429669999999,"8JMW+J7 Oakland City, IN, USA",3.7,61,1
ChIJUSX7eYXucYgRb6SWQ2yVM6w,Subway,38.4136995,-87.7667639,"C67M+F7 Mount Carmel, IL, USA",4.2,133,1
ChIJHzsxR4XYcYgRh00KipH1kkg,Subway,38.174791,-87.5492038,"5FF2+W8 Haubstadt, IN, USA",3.3,26,1
ChIJiyDsURrfbYgRpy_R-6-uePM,Subway,38.6525599,-87.1689557,"MR3J+2C Washington, IN, USA",4.2,104,1
ChIJa4i7gtTYcYgRlfr4oW58LTs,Haub House,38.20402139999999,-87.5738983,"6C3G+JC Haubstadt, IN, USA",4.3,325,3
ChIJBTPns8fXcYgRh-ASYCe0iy8,Subway,38.0928718,-87.55770059999999,"3CVR+4W Evansville, IN, USA",3.4,49,1
ChIJnQrnoMe8cYgRYBnCwaom-Ug,Subway,38.239215,-87.9996603,"62Q2+M4 Grayville, IL, USA",3.6,142,1
ChIJf9rokBj_bYgRAaUFYFFwBBM,Papa John's Pizza,38.6877956,-87.5073455,"MFQV+43 Vincennes, IN, USA",3.4,52,1
ChIJw1hSMsbXcYgRJgg0_wgMCwg,Papa John's Pizza,38.091549,-87.5566249,"3CRV+J9 Evansville, IN, USA",4.1,59,1
ChIJL6cuZiD_bYgRDDWL1Bwas80,Denny's,38.6926133,-87.4993061,"MGV2+27 Vincennes, IN, USA",3.6,1199,1
ChIJDwVYlk4obogRT0slL5aBVj0,Hornet's Nest,38.08572899999999,-87.51345099999999,"3FPP+7J Evansville, IN, USA",4.4,792,2
ChIJBwJDsXjWcYgRN2btWfsX9Os,Wolf's,38.0393048,-87.57401399999999,"2CQG+P9 Evansville, IN, USA",4.1,618,2
ChIJtTZ4cZ3fbYgRUY4Z6Vw3nVE,Subway,38.6317975,-87.18394119999999,"JRJ8+PC Washington, IN, USA",3.5,48,1
ChIJq2JZiP-5cYgRsGKxI8B4hSQ,Red Geranium Restaurant,38.1314539,-87.9345103,"43J8+H5 New Harmony, IN, USA",4.0,152,2
ChIJDduSNlcMkIARnMHEP1Qsexo,Subway,37.9988092,-121.31261,"XMXP+GX Stockton, CA, USA",4.1,56,1
ChIJDduSNlcMkIARdtJya2nymM8,Auntie Anne's,37.9990128,-121.3135705,"XMXP+JH Stockton, CA, USA",3.9,66,1
ChIJ86-RR0BjmoARhY3F6FE4rDk,Imperial Hotel,38.41933600000001,-120.824798,"C59G+P3 Amador City, CA, USA",4.5,143,2
ChIJDduSNlcMkIARwn4Hw61_I2U,Chinese Gourmet Express,37.99859319999999,-121.312832,"XMXP+CV Stockton, CA, USA",3.8,12,1
ChIJ44OeAfmfmoAR9RuapjDS0qg,Mountain Mike's Pizza,38.128343,-121.2593729,"4PHR+87 Lodi, CA, USA",3.9,165,2
ChIJH8DL_nvGmoARk-fd71L14VQ,Texas Roadhouse,38.45439,-121.40824,"FH3R+QP Elk Grove, CA, USA",4.4,3216,2
ChIJ8_0y7bcMkIARROs11J_83c0,McDonald's,38.0229614,-121.2742216,"2PFG+58 Stockton, CA, USA",3.2,1153,1
ChIJp_58U1EMkIARgOkjxUfGbzo,Chipotle Mexican Grill,37.9946689,-121.3134374,"XMVP+VJ Stockton, CA, USA",4.1,700,1
ChIJLWZp6GgMkIARdhijQnVS74E,Market Tavern,38.01138660000001,-121.3232257,"2M6G+HP Stockton, CA, USA",4.4,850,2
ChIJF777x54SkIARwerHxXCkJQs,Misaki Sushi & Bar,37.9548834,-121.2895268,"XP36+X5 Stockton, CA, USA",4.5,768,2
ChIJ3bstq3l8moARHKP27kafOzU,Subway,38.3624388,-120.8027601,"956W+XV Jackson, CA, USA",3.9,60,1
ChIJV3vL3xmgmoARhBVOzflN0mU,Lodi Beer Company,38.13274939999999,-121.2739584,"4PMG+3C Lodi, CA, USA",4.5,606,2
ChIJA1BwA0zGmoARpfS75YksnDM,Jamba,38.42307999999999,-121.41561,"CHFM+6Q Elk Grove, CA, USA",4.4,90,1
ChIJf14V0QS9moARszCvnz3WTsU,Subway,38.2903464,-121.2998664,"7PR2+43 Galt, CA, USA",3.7,55,1
ChIJL8f6wd0MkIARnx80ab0-6S0,Winco Foods Pizza,38.0049286,-121.2839647,"2P38+XC Stockton, CA, USA",4.6,21,2
ChIJVW6f-0agmoAR7ffPhqa_e7I,Subway,38.1387285,-121.2888951,"4PQ6+FC Lodi, CA, USA",3.9,72,1
ChIJd-8DA-wB2YYRM2vhtZwWz4o,Godfather's Pizza Express,32.3538584,-108.735689,"9737+GP Lordsburg, NM, USA",4.0,82,2
ChIJWYgop0BaM4YReEEZ7DvP9XM,Denny's,32.3416408,-108.6774519,"88RF+M2 Lordsburg, NM, USA",3.8,1003,1
ChIJSWMjQ-wB2YYR1NLpQTmWdHs,Subway,32.3537783,-108.7356136,"9737+GQ Lordsburg, NM, USA",4.0,297,1
ChIJW2MJFIgB2YYR_13Plo0GCi8,Corner Store,32.3408637,-108.7142309,"87RP+88 Lordsburg, NM, USA",3.4,8,1
ChIJKz__UoXH2IYRFO0H6unDde8,Blake's Lotaburger,32.7792126,-108.2739666,"QPHG+MC Silver City, NM, USA",4.2,379,1
ChIJkRbfp5nH2IYRWmoGVxsfjQc,Revel,32.7705993,-108.2761978,"QPCF+6G Silver City, NM, USA",4.6,211,2
ChIJF3m3pJrH2IYR0mJgdyX65T8,Dairy Queen Grill & Chill,32.7771562,-108.2734448,"QPGG+VJ Silver City, NM, USA",4.2,339,1
ChIJQW2irXzH2IYRtGdzGaE3Eh4,LA Cocina Restaurant,32.7743361,-108.2766545,"QPFF+P8 Silver City, NM, USA",4.4,434,1
ChIJRZuhkY7H2IYROWpmrNIY7Co,Denny's,32.7824764,-108.2684061,"QPJJ+XJ Silver City, NM, USA",3.7,626,1
ChIJaa3-ffPH2IYRigQRcoo8mww,Shell,32.7878427,-108.2539592,"QPQW+4C Silver City, NM, USA",4.1,64,2
ChIJjb09oM5u44YR2PfKXVy1478,Arby's,32.7865687,-108.2522687,"QPPX+J3 Silver City, NM, USA",3.8,245,1
ChIJaYspeffH2IYROlSFrBfN8U0,Sonic Drive-In,32.7880791,-108.2524127,"QPQX+62 Silver City, NM, USA",4.0,496,1
ChIJ-ZeUiPzH2IYRs0-hOTc5exw,Little Caesars Pizza,32.787086,-108.25119,"QPPX+RG Silver City, NM, USA",3.7,90,1
ChIJEewAKffH2IYRQDOhAXA_Pt4,Subway,32.78962119999999,-108.2475999,"QQQ2+RX Silver City, NM, USA",3.9,66,1
ChIJl3ebcYgB2YYRCu8ZfsvobCI,Kranberry's Family Restaurant,32.3411667,-108.7148333,"87RP+F3 Lordsburg, NM, USA",4.2,1209,2
ChIJYVm_HP3H2IYRJpLbN3nlZPE,Wendy's,32.7859565,-108.2406038,"QQP5+9Q Silver City, NM, USA",3.7,563,1
ChIJXYaTfUgC2YYRzbX1z3lfWXs,Arby's,32.342342,-108.68115,"88R9+WG Lordsburg, NM, USA",3.8,973,1
ChIJywJEgycC2YYRpz-tHjqT5Y4,McDonald's,32.3435858,-108.7128845,"87VP+CR Lordsburg, NM, USA",3.6,2033,1
ChIJ-9sYxTsC2YYRsPU5UrBPTK4,Ramona's Cafe,32.3461918,-108.6938247,"88W4+FF Lordsburg, NM, USA",4.5,321,1
ChIJ8fG9i6-eOYYRo18Kh_kSkGo,Subway,30.91603860000001,-93.9972142,"W283+C4 Jasper, TX, USA",4.3,171,1
ChIJq8MMRjT-OIYRngD_As3aESE,Subway,30.7678988,-94.4154902,"QH9M+5R Woodville, TX, USA",4.2,223,1
ChIJUUEhV2NhToYRnqS9fzxi7_0,Starbucks,30.8067701,-94.45911230000002,"RG4R+P9 Woodville, TX, USA",4.3,449,2
ChIJO25LgFJlOYYR5EXa-mHujtU,Subway,30.6489419,-93.89735669999999,"J4X3+H3 Kirbyville, TX, USA",3.9,139,1
ChIJWzBgwKSeOYYRHGmPl2CKjzE,Little Caesars Pizza,30.9086454,-93.9953178,"W253+FV Jasper, TX, USA",4.1,210,1
ChIJvWc6AqWeOYYRNVn1VjN3xXI,Dairy Queen Store,30.913049,-93.996583,"W273+69 Jasper, TX, USA",3.9,306,1
ChIJt5ytda6eOYYReg8hg-2DnRA,Church's Chicken,30.9135426,-93.9965513,"W273+C9 Jasper, TX, USA",3.6,193,1
ChIJZaTcda6eOYYRyW1cDyTzAKc,Popeyes Louisiana Kitchen,30.9286433,-93.9964732,"W2H3+FC Jasper, TX, USA",3.7,385,1
ChIJ2fxPE8GeOYYRatJgtV2tio8,Son Asian Bistro,30.90704330000001,-94.0115651,"WX4Q+R9 Jasper, TX, USA",4.2,328,2
ChIJr1BxU6SeOYYRnz0WqU6YGco,Papa John's Pizza,30.9116922,-93.9950978,"W263+MX Jasper, TX, USA",4.1,54,1
ChIJVyt2gaaeOYYRHdW5Cm13k9M,Taco Bell,30.9114324,-93.9933801,"W264+HJ Jasper, TX, USA",3.9,643,1
ChIJGat2sBiAOYYRgH7LjNOdPu0,Subway,30.845998,-93.76935250000001,"R6WJ+97 Newton, TX, USA",4.1,32,1
ChIJEbna_XP1OYYRZJ5spsf9iwo,SIX MILE MARINA,31.24754190000001,-93.75886059999999,"66XR+2F Hemphill, TX, USA",4.5,63,1
ChIJ8Yofba2eOYYRNZsfSwzw5ZA,Martin's Mexican Restaurant,30.9242721,-93.99656329999999,"W2F3+P9 Jasper, TX, USA",4.3,586,2
ChIJ18lWdLyeOYYRyWbx4d0TX8w,Elijah's Cafe,30.907867,-94.0019422,"WX5X+46 Jasper, TX, USA",4.2,824,1
ChIJ9aKn61wReogRkeGQYQe-PgE,Subway,37.04925370000001,-88.5644385,"2CXP+P6 Paducah, KY, USA",3.6,65,1
ChIJ0Wfuh1EQeogRLJ5Ia_tUCdo,Subway,37.0541334,-88.5671314,"3C3M+M4 Paducah, KY, USA",3.1,31,1
ChIJAadhtDlheogRjEO2_81Pos0,Patti's 1880's Settlement,37.0023024,-88.23545,"2Q27+WR Grand Rivers, KY, USA",4.6,3063,2
ChIJky3Wu6cbeogRir7V9EOdfyI,Texas Roadhouse,37.075752,-88.68319,"38G8+8P Paducah, KY, USA",4.4,2383,2
ChIJ5VhyfgobeogR1jr8SO9_MN8,Logan's Roadhouse,37.0766144,-88.6889751,"38G6+JC Paducah, KY, USA",3.8,804,2
ChIJx43sUncaeogRbYI5iM_7Nkk,Little Caesars Pizza,37.063908,-88.63804999999999,"3976+HQ Paducah, KY, USA",3.8,515,1
ChIJKXNBU28DeogRKB0S3j0BOGg,Subway,37.1461765,-88.7208972,"47WH+FJ Metropolis, IL, USA",4.0,104,1
ChIJfeGyozVreogRNfuncng--0Y,Subway,37.0020201,-88.3193684,"2M2J+R7 Calvert City, KY, USA",4.0,207,1
ChIJveDauoMaeogR9yG2w5__lDY,Pizza Inn Buffet,37.082565,-88.637412,"39M7+22 Paducah, KY, USA",4.5,1773,1
ChIJ4wjFW3dRd4gRalnGh43HlL8,Subway,37.4173052,-88.8741038,"C48G+W9 Vienna, IL, USA",4.0,143,1
ChIJt4e-cpZCeogRiu3gwGKhA9M,Subway,36.9273236,-88.3448392,"WMG4+W3 Draffenville, KY, USA",4.1,97,1
ChIJa2IMmS95cIgRFHh6YxG-Vvc,Subway,37.3350961,-88.0807133,"8WP9+2P Marion, KY, USA",4.1,115,1
ChIJ9TwgcjaPeogRmyXsaARXoZY,Subway,37.08563039999999,-88.08542910000001,"3WP7+7R Eddyville, KY, USA",4.2,85,1
ChIJmXb9-GRDeogRhXXeALPOS04,Subway,36.868309,-88.3624561,"VJ9Q+82 Benton, KY, USA",4.1,102,1
ChIJpQsMdaAbeogRECgHgo3Cn6U,Olive Garden Italian Restaurant,37.0749206,-88.6897201,"38F6+X4 Paducah, KY, USA",4.2,1686,2
ChIJh3okqigaeogRR4iQ0hZ3duk,Papa John's Pizza,37.0373829,-88.66382349999999,"28PP+XF Paducah, KY, USA",4.1,113,1
ChIJEYAgygYbeogRleIX44YMKkA,Outback Steakhouse,37.07981989999999,-88.6798019,"38HC+W3 Paducah, KY, USA",4.0,1236,2
ChIJ6WYSK00QeogRE2yHbeCW7j8,Doe's Eat Place,37.0876432,-88.5952472,"3CQ3+3W Paducah, KY, USA",4.4,873,2
ChIJc-VzFE0QeogRMEmpjaq-qBM,Italian Village Pizza,37.0864851,-88.5965406,"3CP3+H9 Paducah, KY, USA",4.5,278,1
ChIJHa0SrJ9oeogR4AonQwYviy0,Waffle House,37.00378989999999,-88.3278217,"2M3C+GV Calvert City, KY, USA",3.8,594,1
ChIJb1L-Q7dBUoYRuILotQR1N2A,Subway,33.2279624,-98.1662445,"6RHM+5G Jacksboro, TX, USA",4.3,93,1
ChIJ9Vmy9mXJU4YRqINJHfH5IPA,Subway,33.0821956,-98.5807234,"3CJ9+VP Graham, TX, USA",3.6,43,1
ChIJ7aFvgb3rUoYRxkSZCqPq0Ss,Subway,33.81444429999999,-98.1914702,"RR75+QC Henrietta, TX, USA",4.0,48,1
ChIJV38U9o2jU4YRE2X9IGFqiWA,Subway,33.370428,-98.7599104,"96CR+52 Olney, TX, USA",4.1,95,1
ChIJW98Ju5bJU4YRtMzrF9RlYgo,Subway,33.1134419,-98.58907029999999,"4C76+99 Graham, TX, USA",3.9,124,1
ChIJYwU-TfEfU4YRPgbQMX1qmvU,Subway,33.8506169,-98.50162600000002,"VF2X+68 Wichita Falls, TX, USA",3.6,14,1
ChIJT_YswTlAUoYRN-RQwe5Ug-U,Village Kitchen,33.200634,-98.15009099999999,"6R2X+7X Jacksboro, TX, USA",4.4,239,1
ChIJr8-7LtgFU4YRZfwvEbGKpDs,Dairy Queen Store,33.5824958,-98.6280259,"H9JC+XQ Archer City, TX, USA",3.7,131,1
ChIJ4wCjB05xToYRZlN2-GpX-AA,Chicken Express,33.22661800000001,-98.16279,"6RGP+JV Jacksboro, TX, USA",3.5,174,1
ChIJOQmCnK1BUoYR_W9EjiYjNVY,China Garden,33.2180948,-98.1674632,"6R9M+62 Jacksboro, TX, USA",4.3,54,1
ChIJzbmwWIyAUoYRnxvaDUdC6YE,Subway,33.5689621,-97.8361307,"H597+HG Bowie, TX, USA",2.8,48,1
ChIJ4z-f7-ZJUoYRxT-79PqG2_c,Cotton's Restaurant,33.163794,-98.3780767,"5J7C+GQ Bryson, TX, USA",4.4,87,1
ChIJR6bZq0tAUoYRp37sKlbIfS4,Dairy Land Drive Inn,33.2147789,-98.1586098,"6R7R+WH Jacksboro, TX, USA",4.3,274,1
ChIJXdYZXr7rUoYReqrRiEnzWTk,Jefe's Bar and Grill,33.8166427,-98.19550319999999,"RR83+MQ Henrietta, TX, USA",4.3,180,2
ChIJPYK3bVTz04AR_UZopz6Yyu8,Pizza Hut,33.6276073,-113.7674776,"J6HM+22 Salome, AZ, USA",3.2,19,1
ChIJf4kAzKnz04ARhw6vwfA-0Do,Pizza Hut Express,33.6281109,-113.769208,"J6HJ+68 Salome, AZ, USA",3.0,3,1
ChIJc18sFdnz04ARFgmcqQ1ckUc,Subway,33.633767,-113.768443,"J6MJ+GJ Salome, AZ, USA",2.1,7,1
ChIJFw7vbVWQ04ARRdUY0qqDD6E,Dos Amigos,33.71594999999999,-113.7788619,"P68C+9F Salome, AZ, USA",4.1,200,2
ChIJVzbm1sH_YVMRKVXT9DVHIro,Subway,47.94377859999999,-117.4761448,"WGVF+GG Deer Park, WA, USA",4.1,157,1
ChIJF8Dhq30dnlQRgNuWK1j-BH8,Subway,47.7921449,-117.3512709,"QJRX+VF Mead, WA, USA",4.1,159,1
ChIJLaYP_aoenlQRUtZCNJmAuIY,Golden Corral Buffet & Grill,47.723771,-117.412007,"PHFQ+G5 Spokane, WA, USA",4.2,4457,2
ChIJZwb96TkZnlQReVD2cu0cMck,A&W Restaurant,47.702905,-117.4085408,"PH3R+5H Spokane, WA, USA",4.2,35,1
ChIJWfziElYcnlQRSTJ78LFquyY,Subway,47.7696193,-117.4013262,"QH9X+RF Spokane, WA, USA",4.0,50,1
ChIJDbqvdDcZnlQRy_6nXUUbQ_k,Subway,47.7024895,-117.4090188,"PH2R+X9 Spokane, WA, USA",3.5,33,1
ChIJZ2zXQBEcnlQRHfLB7UgkeDk,McDonald's,47.7417981,-117.4101189,"PHRQ+PX Spokane, WA, USA",3.6,1180,1
ChIJW1w3i68bnlQR9zJBiyYeqlI,Subway,47.7401949,-117.4886435,"PGR6+3G Spokane, WA, USA",3.3,33,1
ChIJk8R1yk0ZnlQRnmoo8gyJHzk,Little Caesars Pizza,47.7136,-117.41192,"PH7Q+C6 Spokane, WA, USA",3.9,678,1
ChIJz6OwSlQcnlQRXGyRlrbroys,Jimmy John's,47.7687646,-117.403448,"QH9W+GJ Spokane, WA, USA",4.1,111,1
ChIJ9_7-47AenlQRYwLq4R-prKw,Subway,47.7166101,-117.3945088,"PJ84+J5 Spokane, WA, USA",3.9,199,1
ChIJEQJ_PmgZnlQRekbMmBxLRfY,Papa Murphy's | Take 'N' Bake Pizza,47.70853529999999,-117.4361804,"PH57+CG Spokane, WA, USA",4.4,293,1
ChIJkXjSNk8cnlQRriN16ULOn0I,Pizza Pipeline,47.752194,-117.4003917,"QH2X+VR Spokane, WA, USA",3.8,150,2
ChIJI3Bkok0ZnlQRw9UrUqqNefY,Tomato Street North Division,47.7145233,-117.4106839,"PH7Q+RP Spokane, WA, USA",4.5,2879,2
ChIJjxZDtt8Q94cRgcnG5JwJB0g,Berne Wood-Fired Pizza & Concert Series,44.16380179999999,-92.77643979999999,"567F+GC West Concord, MN, USA",4.7,167,2
ChIJwSybUTDm9ocRCeqypO0Nu4A,Subway,44.097713,-93.2490624,"3QX2+39 Owatonna, MN, USA",3.6,33,1
ChIJPdrynLLn9ocRrctkbOKCSzs,Subway,44.0869222,-93.22830479999999,"3QPC+QM Owatonna, MN, USA",4.1,95,1
ChIJpeHxKN729ocRfl9ETW6iy_I,Subway,44.2948271,-93.3017315,"7MVX+W8 Faribault, MN, USA",3.4,173,1
ChIJjaRpj9v29ocRsTB3azWaVKg,Subway,44.28940230000001,-93.30556879999999,"7MQV+QQ Faribault, MN, USA",3.1,38,1
ChIJY61X_Hc-94cRtWlF6FBdqMQ,Subway,44.03221569999999,-92.85875419999999,"24JR+VF Dodge Center, MN, USA",3.9,86,1
ChIJaeE6xZ5q94cRUP_UPfcl3VM,The Hubbell House,44.0669433,-92.7549187,"368W+Q2 Mantorville, MN, USA",4.6,1051,3
ChIJf8pT4DAE94cRqG18enfqWxY,Subway,44.2718058,-92.985137,"72C7+PW Kenyon, MN, USA",3.5,57,1
ChIJDzPqp1Ax8YcRq_9qXa-DOQc,Subway,43.66397970000001,-93.32561749999999,"MM7F+HQ Albert Lea, MN, USA",3.7,89,1
ChIJ3Unx8fdA94cR0eFDg2-6joM,Subway,44.0241522,-92.748627,"27F2+MG Kasson, MN, USA",3.9,69,1
ChIJBU9TdZY28YcRIzGayVivNyU,Subway,43.6506368,-93.360231,"MJ2Q+7W Albert Lea, MN, USA",3.9,163,1
ChIJV-GYmyuc9ocRBqK2biUNXC4,Subway,44.1165183,-93.700043,"478X+JX Janesville, MN, USA",4.5,72,1
ChIJHx9caRbm9ocRmeabAXxLEFI,Famous Dave's Bar-B-Que,44.138318,-93.25200199999999,"4PQX+85 Owatonna, MN, USA",4.2,976,2
ChIJgxOsjUL39ocRLD1oHWgdPJk,Basilleo's Pizza Restaurant,44.2949867,-93.27047639999999,"7PVH+XR Faribault, MN, USA",4.6,348,2
ChIJQ7qyqF339ocRar-Ov0Q84qs,Depot Bar & Grill,44.294201,-93.2654297,"7PVM+MR Faribault, MN, USA",4.4,812,2
ChIJ-U6BZcRT9ocRzdRf561YFLc,Subway,44.45531030000001,-93.164917,"FR4P+42 Northfield, MN, USA",3.6,141,1
ChIJyb5g3N9C94cR3b-XLoOKiaI,Subway,44.0294205,-92.6330053,"29H8+QQ Byron, MN, USA",4.2,83,1
ChIJVen8doPR8IcRNWrDE2UR3Zk,Steve's Pizza,43.6697769,-92.9750519,"M29F+WX Austin, MN, USA",4.5,489,2
ChIJ9W_yQOY1q1QRghWVQ1qrm-4,Subway,42.525128,-113.7927274,"G6G4+3W Burley, ID, USA",4.1,147,1
ChIJt7tVr282q1QRbF3svJu5fG8,Subway,42.564147,-113.7919673,"H675+M6 Burley, ID, USA",4.0,119,1
ChIJy2_BvTswq1QRk4G9WqMawEI,Subway,42.6073338,-113.6804149,"J849+WR Rupert, ID, USA",3.9,184,1
ChIJIQ7bC282q1QRV5TABfiMd5s,Little Caesars Pizza,42.563095,-113.789505,"H676+65 Burley, ID, USA",4.3,232,1
ChIJncrIHmc2q1QRwfwbHTEgjms,Morey's Steakhouse,42.55772,-113.791488,"H655+3C Burley, ID, USA",4.3,599,2
ChIJ-WHZ2zoxq1QR8TGKoEIkqfM,Wayside Cafe,42.57318639999999,-113.7297552,"H7FC+73 Heyburn, ID, USA",4.3,1291,1
ChIJfQvyv2c2q1QRVE4DsCsuRwA,Guadalajara Mexican Restaurant,42.5223082,-113.7938123,"G6C4+WF Burley, ID, USA",4.3,450,2
ChIJUQPsVOAvq1QRjfCbGb-tBdc,Acapulco,42.6186772,-113.6669986,"J89M+F6 Rupert, ID, USA",4.5,96,1
ChIJHUlrwzoxq1QRSX33BkG0eVo,A&W Restaurant,42.5728714,-113.7302228,"H7F9+4W Heyburn, ID, USA",3.7,188,1
ChIJS4DOa3c2q1QRVdVyknr4QnY,Charlie's Cafe,42.53795059999999,-113.7862263,"G6Q7+5G Burley, ID, USA",4.4,207,1
ChIJL2D6R3Q2q1QRqdNGCfQGjHI,Nostalgia Coffee & Cafe,42.5362534,-113.7922021,"G6P5+G4 Burley, ID, USA",4.7,159,2
ChIJ7dWGBh8wq1QRi6CecHsAELk,Sofie's Chatterbox,42.6171114,-113.6733393,"J88G+RM Rupert, ID, USA",4.6,396,1
ChIJa97jKes2q1QRlE0rjkNvrHY,Hot Stuff Pizza & Subs,42.571302,-113.7845286,"H6C8+G5 Heyburn, ID, USA",3.7,3,1
ChIJDYGtXfg2q1QReyMIq5eljCA,Wendy's,42.5631706,-113.7910654,"H675+7H Burley, ID, USA",3.7,530,1
ChIJYRqsDW82q1QRXz5KpByK1lY,Taco Bell,42.56337200000001,-113.792354,"H675+83 Burley, ID, USA",3.6,457,1
ChIJSxjXc_g2q1QRiNzBsQu08oU,Denny's,42.5624945,-113.7915488,"H665+X9 Burley, ID, USA",3.8,922,1
ChIJ278GAAxbQogRyxymT8dgjHo,Cheddar's Scratch Kitchen,37.9823556,-84.4960394,"XGJ3+WH Lexington, KY, USA",4.2,1624,2
ChIJHdwFiJJPQogRwLcK6WSZP-8,"Smashing Tomato | Pizza, Salad and more",38.0389967,-84.4273379,"2HQF+H3 Lexington, KY, USA",4.6,359,1
ChIJO0s0mLZaQogRQHCyRsiWSao,Panera Bread,38.01139,-84.45619599999999,"2G6V+HG Lexington, KY, USA",4.1,638,2
ChIJveT3WaFEQogRCVcZrxasrvg,Buffalo Wild Wings,38.03636210000001,-84.5170167,"2FPM+G5 Lexington, KY, USA",3.9,1014,2
ChIJjeFOVKZFQogRsg780BHr6g0,Golden Corral Buffet & Grill,38.0630703,-84.4671762,"3G7M+64 Lexington, KY, USA",3.9,2728,2
ChIJqWvqH6VaQogRxcTCszmhL38,Texas Roadhouse,38.00169,-84.44816999999999,"2H22+MP Lexington, KY, USA",4.4,2273,2
ChIJP3jvXKFEQogRbmRyUwNajHU,First Watch,38.0367699,-84.5176544,"2FPJ+PW Lexington, KY, USA",4.5,609,2
ChIJI0nSLuRPQogRdkOEN2IdLak,Bonefish Grill,38.0240896,-84.4238883,"2HFG+JC Lexington, KY, USA",4.5,838,2
ChIJ5bIjHdFcQogRbqPaDegD__k,Masala Indian Cuisine,38.0140727,-84.5572396,"2C7V+J4 Lexington, KY, USA",4.5,504,2
ChIJ2cBT77ZaQogRava8fLECNLo,QDOBA Mexican Eats,38.0098551,-84.4562978,"2G5V+WF Lexington, KY, USA",4.1,324,1
ChIJI0nSLuRPQogRR_Mkutxea5g,QDOBA Mexican Eats,38.02356409999999,-84.4238417,"2HFG+CF Lexington, KY, USA",4.1,411,1
ChIJE_2DWZNPQogRV2BwHUMlYhA,Subway,38.03827339999999,-84.4227523,"2HQG+8V Lexington, KY, USA",3.5,33,1
ChIJi2xaxmD2zFQRkZGokKLoSJw,Big Valley Market,41.1212348,-121.1439132,"4VC4+FC Bieber, CA, USA",4.5,79,2
ChIJnd5-_2b2zFQRWLN_fZSIqvA,The Old Mill Grill,41.1238027,-121.1422169,"4VF5+G4 Bieber, CA, USA",4.7,136,2
ChIJy-oKJvWJzFQRXF8-VSi2Iw0,The Oney Frosty In Town,41.1950472,-120.9444367,"53W4+26 Adin, CA, USA",4.7,246,1
ChIJ_dI9kNn_zFQRbivsUv_m0Fw,Crumbs,41.050487,-121.3991282,"3J22+58 McArthur, CA, USA",4.9,111,2
ChIJ-0Kt7tn_zFQRzoU143iSiE8,Ol' Merc Pizza Company,41.0498295,-121.3987385,"2JX2+WG McArthur, CA, USA",4.5,89,1
ChIJkQgkuNf_zFQRo2gK1T7Ns24,Bulldog Bite,41.0467139,-121.3994328,"2JW2+M6 McArthur, CA, USA",4.9,15,1
ChIJocy3UAwBzVQRc8R-ZvjRtfs,Frosty,41.01285749999999,-121.43408,"2H78+49 Fall River Mills, CA, USA",4.6,57,1
ChIJByUv5Emwb4cRE5jEzN77bfM,A&W Restaurant,41.1771795,-104.0763094,"5WGF+VF Pine Bluffs, WY, USA",4.2,388,1
ChIJ09KqL0iwb4cR4LKef7wBCwg,The Knotty Pine Saloon,41.1790981,-104.0761297,"5WHF+JG Pine Bluffs, WY, USA",4.6,114,1
ChIJlYNQQYcNbocRJwUiwSb5OS0,Pawnee Station Restaurant,40.6062657,-103.8416325,"J545+G8 Raymer, CO, USA",4.5,200,1
ChIJEe90wUmwb4cR-AnYvqtCCoU,Subway,41.17689229999999,-104.0753545,"5WGF+QV Pine Bluffs, WY, USA",4.1,68,1
ChIJocWNd-kEbocRp4gteRIwSnk,Dewey's Bar & Grill,40.6038789,-103.6658882,"J83M+HJ Stoneham, CO, USA",4.6,85,2
ChIJixyoEmIezlQRRFZUVGohuHs,Denny Bar Company,41.4561795,-122.8945913,"F444+F5 Etna, CA, USA",4.7,134,2
ChIJE_VfC2IezlQRwXCfCjaUWC0,Paystreak Brewing,41.4563223,-122.8942583,"F444+G7 Etna, CA, USA",4.6,134,2
ChIJB-iQxfQezlQR8KijkJ8Ef58,Dotty's,41.4633186,-122.8959017,"F473+8J Etna, CA, USA",4.4,230,2
ChIJH3leOJs8zlQRe5vp0v5givA,Five Marys Burgerhouse,41.6065556,-122.8424639,"J545+J2 Fort Jones, CA, USA",4.6,265,2
ChIJt4L9KGQZwIcRuJZy0_AgWbs,Texas Roadhouse,39.7756,-94.80284999999999,"Q5GW+6V Saint Joseph, MO, USA",4.5,1720,2
ChIJ0WYKRP8bwIcR25NDafQ4ijg,Subway,39.79840799999999,-94.8147923,"Q5XP+93 Saint Joseph, MO, USA",3.8,81,1
ChIJ83BJJXUQwIcRmScqvw92_-k,Subway,39.71285379999999,-94.8714516,"P47H+4C Saint Joseph, MO, USA",3.9,148,1
ChIJjYCYj4NilYcRgvvwxnfNeKk,Subway,39.8543841,-95.52662550000001,"VF3F+Q8 Hiawatha, KS, USA",4.1,110,1
ChIJHec0PPMZwIcR5ifRqdePY9g,Subway,39.7374175,-94.8035963,"P5PW+XH Saint Joseph, MO, USA",3.9,42,1
ChIJIxzrhiNGlYcR89WLUBzGukw,Subway,40.134485,-95.2339885,"4QM8+QC Mound City, MO, USA",4.0,60,1
ChIJUUHpGdwZwIcR8zcR6Huk97Q,Subway,39.72378589999999,-94.78496559999999,"P6F8+G2 Saint Joseph, MO, USA",3.7,61,1
ChIJ_R0DlQgbwIcRaj32a3-ivxE,Boudreaux's Louisiana Seafood & Steaks,39.7680566,-94.85566899999999,"Q49V+6P Saint Joseph, MO, USA",4.4,1536,2
ChIJ4WODXVwZwIcRYyg0EonI4QY,Papa John's Pizza,39.7829196,-94.80349199999999,"Q5MW+5J Saint Joseph, MO, USA",3.9,111,1
ChIJV7SCTGkZwIcRgbJWM9WJm8A,Le Peep,39.7746739,-94.7961694,"Q6F3+VG Saint Joseph, MO, USA",4.6,463,2
ChIJlSnCQqhxlYcRgaLPt-EfKpk,Subway,40.0594624,-95.60209710000001,"395X+Q5 Falls City, NE, USA",4.0,56,1
ChIJqxsxqEsawIcRqgG3zQo44eU,Little Caesars Pizza,39.75496,-94.8347,"Q538+X4 Saint Joseph, MO, USA",4.1,643,1
ChIJn7iK4hscwIcRIRGrIslyEWs,Cheddar's Scratch Kitchen,39.81436589999999,-94.8160202,"R57M+PH Saint Joseph, MO, USA",4.3,1746,2
ChIJ5XBcDFum6ocRBp36MLkU5JU,Subway,39.94651979999999,-94.82230129999999,"W5WH+J3 Savannah, MO, USA",4.1,72,1
ChIJa3NmCmkZwIcRFVz6NkubZ-M,Denny's,39.77745549999999,-94.79555099999999,"Q6G3+XQ Saint Joseph, MO, USA",3.5,1075,1
ChIJR8xKZh8cwIcRamUsEQY2uNs,Buffalo Wild Wings,39.8194536,-94.8142647,"R59P+Q7 Saint Joseph, MO, USA",3.8,639,2
ChIJEYozvWcZwIcRqHkAIMK-as8,Panera Bread,39.77797770000001,-94.8024032,"Q5HX+52 Saint Joseph, MO, USA",4.2,555,2
ChIJ36QJuaQbwIcRFPmwgCCaHos,Subway,39.77153549999999,-94.84252509999999,"Q5C4+JX Saint Joseph, MO, USA",4.1,131,1
ChIJC4jN0cH0v4cRCGs7XZ7DJwQ,Subway,39.5594721,-95.11946359999999,"HV5J+Q6 Atchison, KS, USA",4.0,144,1
ChIJy6HDAVzu2ogRkLb3Pm68BAQ,Ario,25.9286768,-81.7288702,"W7HC+FF Marco Island, FL, USA",3.9,74,2
ChIJw6zGA2fu2ogRRxnk1RTiSlw,Stilts Bar & Grill,25.9201235,-81.7282431,"W7CC+2P Marco Island, FL, USA",4.1,315,2
ChIJewt4cSXu2ogRMmqNgVOYkjY,Subway,25.93242649999999,-81.69882539999999,"W8J2+XF Marco Island, FL, USA",4.1,59,1
ChIJ27SFia7v2ogRtTy6w5w2NDc,Little Caesars Pizza,25.953123,-81.72672,"X73F+68 Marco Island, FL, USA",4.1,98,1
ChIJQ14Kqa7v2ogRpJ0Wz6OxqzE,Subway,25.9542866,-81.7258829,"X73F+PJ Marco Island, FL, USA",4.4,57,1
ChIJ50jnV6nv2ogRV5w_ZJrIcwY,CJ's on the Bay,25.9532798,-81.729525,"X73C+85 Marco Island, FL, USA",4.4,1120,2
ChIJA3zUk2fu2ogRv16QCcq40U4,Nacho Mama's.,25.9223987,-81.7258409,"W7CF+XM Marco Island, FL, USA",3.9,498,2
ChIJv5r9dQrx2ogRy0aC92SVb_A,Stan's Idle Hour Seafood Restaurant,25.9257235,-81.6483949,"W9G2+7J Goodland, FL, USA",4.5,822,2
ChIJTz8tS1Tu2ogRKTGj1q-jNpQ,Verdi's American Bistro,25.9427736,-81.7321314,"W7V9+44 Marco Island, FL, USA",4.3,138,3
ChIJQd5zYKfx2ogRooJzRFgFG5A,Little Bar Restaurant,25.925766,-81.64749909999999,"W9G3+82 Goodland, FL, USA",4.6,831,2
ChIJ2zCtUlTu2ogRHtrlZSI1V9o,Joey's Pizza & Pasta House,25.943255,-81.732148,"W7V9+84 Marco Island, FL, USA",4.3,1130,2
ChIJGc7owWTu2ogRZr5KTfzXzIg,Sunset Grille,25.9128722,-81.7279861,"W77C+4R Marco Island, FL, USA",4.2,724,2
ChIJSYJZz13u2ogRbeb6_L9J2jA,Sale e Pepe,25.9254327,-81.7284706,"W7GC+5J Marco Island, FL, USA",4.3,186,4
ChIJ_1fdj2fu2ogR2hUjUCFWCEU,Marco Prime Steak & Seafood Restaurant,25.9221902,-81.7262528,"W7CF+VF Marco Island, FL, USA",4.4,524,3
ChIJjc1j1Anx2ogRy94UuCECMGY,Old Marco Lodge Crab House,25.927176,-81.647063,"W9G3+V5 Goodland, FL, USA",3.7,50,2
ChIJZT4y_PsOTE0RnyPmNW4oTLs,Subway,45.9515052,-86.2436628,"XQ24+JG Manistique, MI, USA",4.2,138,1
ChIJparmV07WuVIRppR25nUNXNE,Hardee's,45.9517073,-86.24393719999999,"XQ24+MC Manistique, MI, USA",4.1,420,1
ChIJoR6r_rFGTE0RoeKd3dsobUY,The Dock at Bay Ridge RV Park,45.7863455,-86.5677449,"QCPJ+GW Garden, MI, USA",4.5,287,2
ChIJD88NX4GzS00ReVnrQXT421k,Stoney Acre Grill & Pub,45.7355343,-85.5243495,"PFPG+67 Beaver Island, MI, USA",4.2,70,2
ChIJQetFsvoOTE0RMYknLBgXhfc,Big Boy,45.947766,-86.237297,"WQX7+43 Manistique, MI, USA",4.2,1015,1
ChIJn5WIe1IOTE0RLWXHOWPURns,Burger King,45.9513558,-86.25717449999999,"XP2V+G4 Manistique, MI, USA",3.5,292,1
ChIJS7_Y4P8OTE0RJEf-VGqbhxk,Main Street Pizza,45.95644060000001,-86.24640339999999,"XQ43+HC Manistique, MI, USA",4.1,172,2
ChIJR_6K6lYOTE0RpPdi-5YXs1o,Upper Crust Cafe Bakery & Deli,45.9506065,-86.2479007,"XQ22+6R Manistique, MI, USA",4.8,262,1
ChIJgTIh6f8OTE0Ru93K5cmPXBo,Cedar Street Cafe & Espresso Bar,45.95594559999999,-86.2467025,"XQ43+98 Manistique, MI, USA",4.6,320,1
ChIJQQvElP8OTE0RIzYCApjwoJg,TAP21,45.9553749,-86.24673519999999,"XQ43+48 Manistique, MI, USA",4.3,452,2
ChIJCYuCCLIPTE0RhwfiR4PwUHw,Clyde's Drive-In,45.9611549,-86.2572326,"XP6V+F4 Manistique, MI, USA",4.7,756,1
ChIJd-hOb_pGslIRPi5p4oL4FbU,Subway,45.81933159999999,-92.9799792,"R29C+P2 Pine City, MN, USA",4.1,141,1
ChIJD_4gp2eqs1IRJEEl5P1xlYc,Subway,45.4925467,-93.2426325,"FQV4+2W Isanti, MN, USA",4.1,184,1
ChIJXT8wM0ZNslIRRAUs7mnb0X8,Subway,45.7250635,-93.17080639999999,"PRGH+2M Braham, MN, USA",3.7,83,1
ChIJZ24tVcNxslIRQMqL8ITNw_E,Subway,45.7733157,-92.6824786,"Q8F9+82 Grantsburg, WI, USA",3.9,132,1
ChIJW3U9Z9A8slIRRbXP4MSpTOw,Tobies Restaurant & Bakery,46.0102607,-92.9303054,"2369+4V Hinckley, MN, USA",4.3,3712,2
ChIJCWVCzIORs1IRfuYg1iARSyM,Subway,45.75815829999999,-93.6327989,"Q958+7V Milaca, MN, USA",4.0,267,1
ChIJx6HHxMURs1IRYRCleGCLHT0,Subway,45.38732659999999,-93.3612066,"9JPQ+WG Saint Francis, MN, USA",4.2,163,1
ChIJoyhqNd_lslIRodMuQHLfMBY,Subway,45.3360646,-93.0008163,"8XPX+CM Wyoming, MN, USA",4.3,105,1
ChIJS5uLa8SGrVIR86pvs2zSS7o,Subway,45.65475289999999,-92.4676174,"MG3J+WX Frederic, WI, USA",3.9,87,1
ChIJBZvKOdn5slIR2IYmABdTDh4,Papa Murphy's | Take 'N' Bake Pizza,45.5112905,-92.99785229999999,"G262+GV North Branch, MN, USA",4.3,55,1
ChIJl3t_4fHJs1IRKhlBcouS1d8,Subway,45.870293,-93.2905196,"VPC5+4Q Mora, MN, USA",4.1,173,1
ChIJ15LWAdmds1IR47RCvjVKPGY,New China,45.57079650000001,-93.5804174,"HCC9+8R Princeton, MN, USA",4.1,269,1
ChIJL1aHJ-RGslIRLI3WIyinH5U,Chubby's Sports Bar & Grill Pine City,45.8213164,-92.9700194,"R2CH+GX Pine City, MN, USA",4.2,555,2
ChIJt0IDNl_lslIRg0hyjDEcUkQ,Stacy Sports Grill,45.39649579999999,-92.9841461,"92W8+H8 Stacy, MN, USA",4.0,403,1
ChIJQ6UBH_LJs1IRC-nc1Zx-Tdk,McDonald's,45.8718869,-93.28959929999999,"VPC6+Q5 Mora, MN, USA",3.2,745,1
ChIJ4U6d3udxslIRxalYz-6xjbc,The Foxhole - American Legion Post 185,45.7792879,-92.68384689999999,"Q8H8+PF Grantsburg, WI, USA",4.5,43,1
ChIJxyxL6lwSz4kR8Q9wibSkbTQ,Country Cupboard Inc,40.986089,-76.88263529999999,"X4P8+CW Lewisburg, PA, USA",4.4,3041,2
ChIJ-xG-7iGmz4kRWnGXnhqIOsQ,Bullfrog Brewery,41.2403924,-77.00568559999999,"6XRV+5P Williamsport, PA, USA",4.4,731,2
ChIJObgXGes_z4kR0tTYSFpGKFw,Auntie Anne's,40.8251684,-76.8488668,"R5G2+3F Selinsgrove, PA, USA",3.9,9,1
ChIJR9QUDMEZz4kRZFoPj11YCho,Subway,40.9241263,-77.0269031,"WXFF+M6 Mifflinburg, PA, USA",4.4,106,1
ChIJwZKKq32mz4kRmEiWB_2chEw,Olive Garden Italian Restaurant,41.2497695,-76.9672155,"62XM+W4 Williamsport, PA, USA",4.3,1322,2
ChIJW3_rXLB9z4kR_eIImnKaGp4,Subway Restaurants,41.01505509999999,-76.4928036,"2G84+2V Bloomsburg, PA, USA",3.6,39,1
ChIJw9NsveOoz4kRmaDnEqNSNIg,Subway,41.2395706,-77.0518657,"6WQX+R7 Williamsport, PA, USA",4.1,99,1
ChIJP_JcmwU_z4kRq5YW6zgxEA0,Selin's Grove Brewing,40.80090500000001,-76.861308,"R42Q+9F Selinsgrove, PA, USA",4.7,377,2
ChIJvekPTmkNz4kR9LifcG_kFgc,SUBWAY®Restaurants,41.02005090000001,-76.85455069999999,"24CW+25 Milton, PA, USA",4.1,79,1
ChIJhzSDcHymz4kRDT0Z4YX3t-o,Subway,41.2502483,-76.9694009,"722J+36 Williamsport, PA, USA",4.0,100,1
ChIJTZY4fGf_zokRinQZTzdxO6k,Subway,41.2032173,-77.26352130000001,"6P3P+7H Jersey Shore, PA, USA",4.2,81,1
ChIJB8O1AO1qz4kRW9hPGd8akI8,Subway,40.86241069999999,-76.7939002,"V664+XC Sunbury, PA, USA",4.1,117,1
ChIJP95ELhprz4kRRRZuXmJ0Uh8,Subway,40.8878304,-76.7966692,"V6Q3+48 Northumberland, PA, USA",4.2,119,1
ChIJuaViD0S0z4kR9wdJzSzQtz4,Fry Bros Turkey Ranch Restaurant,41.45683469999999,-77.13112319999999,"FV49+PH Trout Run, PA, USA",4.5,1011,2
ChIJQ2Hr4Xwjz4kR1FxJN1h4UXY,Subway,40.792071,-77.0465692,"QXR3+R9 Middleburg, PA, USA",4.2,70,1
ChIJC4WOmrl9z4kR7LMigYmuEIk,Cracker Barrel Old Country Store,41.017896,-76.4916418,"2G95+58 Bloomsburg, PA, USA",4.4,2241,2
ChIJk8cmpsa33IcRbKLpDn3le4g,Shakespeare's Pizza - Downtown,38.94867,-92.327906,"WMXC+FR Columbia, MO, USA",4.6,1826,2
ChIJB0osEQq43IcR-9HEbztrGp0,White Castle,38.96433330000001,-92.2868563,"XP77+P7 Columbia, MO, USA",4.0,2508,1
ChIJ34KrisW33IcRdVRBVG0IFrA,Flat Branch Pub & Brewing,38.950139,-92.332031,"XM29+35 Columbia, MO, USA",4.5,2240,2
ChIJl0EhGAW23IcRSnD4fIqJvyI,G & D Pizzaria,38.9550954,-92.37338559999999,"XJ4G+2J Columbia, MO, USA",4.5,808,2
ChIJm3seQQNZ24cRCK3CzL2whas,Subway,38.5852491,-92.2540825,"HPPW+39 Jefferson City, MO, USA",4.0,38,1
ChIJ_fprqBq33IcRU5X30qGoqLw,Subway,38.91177330000001,-92.33270259999999,"WM68+PW Columbia, MO, USA",3.8,47,1
ChIJS-o1ox633IcRmhz0uDABeBQ,Shakespeare's Pizza - South,38.90614019999999,-92.3370863,"WM47+F5 Columbia, MO, USA",4.6,912,2
ChIJPTmmRR643IcRJF-kDObjXh4,Starbucks,38.94739500000001,-92.301175,"WMWX+XG Columbia, MO, USA",4.3,577,2
ChIJj4IyCBy43IcR-fHWfKT2aGg,Subway,38.950497,-92.2961418,"XP23+5G Columbia, MO, USA",3.6,101,1
ChIJ9cnnf9i33IcRPzt_kVZKO9w,Subway,38.9643854,-92.3295034,"XM7C+Q5 Columbia, MO, USA",3.8,122,1
ChIJa9jfYwq43IcRXT1teGJB7-4,Golden Corral Buffet & Grill,38.96447740000001,-92.2850098,"XP77+QX Columbia, MO, USA",4.2,2377,2
ChIJ6y2Wm7633IcRlDuwGnkGsRk,Subway,38.9395344,-92.3259681,"WMQF+RJ Columbia, MO, USA",3.3,39,1
ChIJL9zMr-XH3IcRHRhHygQxuLs,Subway,38.97877099999999,-92.2947349,"XPH4+G4 Columbia, MO, USA",3.7,77,1
ChIJq2acn5y43IcRBkm9yVfFxUg,Subway,38.9609838,-92.25179299999999,"XP6X+97 Columbia, MO, USA",3.6,74,1
ChIJ8-jBl2ZAw4cR4uIw6hRNhsA,Subway,38.9384273,-92.7446982,"W7Q4+94 Boonville, MO, USA",3.9,131,1
ChIJa5oXaUK23IcRdBC-Pipcd84,Subway,38.936985,-92.3598069,"WJPR+Q3 Columbia, MO, USA",3.6,39,1
ChIJ68hyr8a33IcRB8q8KpPq_VQ,Chipotle Mexican Grill,38.9479732,-92.3274125,"WMXF+52 Columbia, MO, USA",4.3,295,1
ChIJdZzf0ca33IcRxsI1r8jXoZ4,Noodles and Company,38.9469646,-92.3273098,"WMWF+Q3 Columbia, MO, USA",4.1,182,1
ChIJUY4ZDXuKy4cRECrgwaH6xKA,Wiederkehr Wine Cellar & Weinkeller Restaurant,35.45718430000001,-93.751539,"F64X+V9 Wiederkehr Village, AR, USA",4.3,173,2
ChIJydnuAGF4zIcRpD4jgCn3mSY,Subway,35.29152599999999,-93.71902899999999,"77RJ+J9 Paris, AR, USA",4.1,75,1
ChIJvWyugQe4y4cRcodF7V6c57Y,Subway,35.4930241,-94.22657579999999,"FQVF+69 Alma, AR, USA",4.2,142,1
ChIJU6npIjOzzocR-zN5d84LCqw,Subway,36.1133785,-93.717306,"477M+93 Huntsville, AR, USA",4.0,147,1
ChIJH2U17aFrzIcRiXc_gx1Fr8Q,Subway,35.4656452,-93.48034559999999,"FG89+7V Clarksville, AR, USA",3.9,56,1
ChIJ-SgyTTRqzIcRN_wBAYp_8Pw,Subway,35.4486399,-93.46042539999999,"CGXQ+FR Clarksville, AR, USA",4.5,31,1
ChIJX_ECL7mMy4cRpCxwXrf5acY,Thai Steak House,35.4890037,-93.8421422,"F5Q5+J4 Ozark, AR, USA",4.7,162,1
ChIJ06uyDKOMy4cRkIC3Y5bl608,Sonic Drive-In,35.4873044,-93.83273919999999,"F5P8+WW Ozark, AR, USA",4.0,547,1
ChIJh6vphxyLy4cRZfQf74cLXN8,P J's Fina-Pizza Pro,35.4767035,-93.7882198,"F6G6+MP Ozark, AR, USA",4.3,38,1
ChIJDUAzaRaNy4cRfexB8SAJEd8,Subway,35.5114779,-93.8223402,"G56H+H3 Ozark, AR, USA",4.0,130,1
ChIJawMPWVxszIcRaR-HX52El_w,Kountry Kitchen Grille,35.4681785,-93.5183745,"FF9J+7M Clarksville, AR, USA",4.5,291,1
ChIJXSZx17iMy4cRhtxdoUGkknw,Subway,35.48927949999999,-93.84269189999999,"F5Q4+PW Ozark, AR, USA",4.2,119,1
ChIJrVSVzLXqy4cRBi46wd7lP68,Mulberry Dairy Dip,35.5023376,-94.0529912,"GW2W+WR Mulberry, AR, USA",4.5,299,1
ChIJtxtrzRprzIcRqCrWVYm-occ,South Park Restaurant,35.4509398,-93.46682589999999,"FG2M+97 Clarksville, AR, USA",4.4,766,2
ChIJjVJ2Sk1qzIcREHXO1o_xUE0,Sonic Drive-In,35.4642135,-93.4805578,"FG79+MQ Clarksville, AR, USA",3.4,851,1
ChIJ9etW2hlgIIYRuWjFvuxXz3E,Rose's Cafe',29.414866,-90.289975,"CP76+W2 Galliano, LA, USA",4.4,264,2
ChIJr3lz5ev0IIYR6W0yRYWWs5E,Subway,29.478848,-90.3211402,"FMHH+GG Cut Off, LA, USA",4.6,30,1
ChIJQeRpquc1nogRpwmyj2GvDT0,Subway,29.4803918,-89.6937358,"F8J4+5G Port Sulphur, LA, USA",4.5,72,1
ChIJNXKpKOj0IIYRPNKMiwohiXI,Burger King,29.4741999,-90.31506569999999,"FMFM+MX Cut Off, LA, USA",3.9,318,1
ChIJgc9-53XzIIYRnc_Ly1MxtxA,Subway,29.5472322,-90.3429075,"GMW4+VR Larose, LA, USA",3.8,55,1
ChIJ-4aUGaqKIIYRD2AQ8sqvQUQ,Subway,29.4180437,-90.2936689,"CP94+6G Galliano, LA, USA",4.5,58,1
ChIJc80CHh71IIYRUUq1PkLENHQ,Sonic Drive-In,29.465399,-90.3221808,"FM8H+54 Galliano, LA, USA",4.3,439,1
ChIJq3MjL-H0IIYR8hY0YNR63P8,Smoothie King,29.468893,-90.3213,"FM9H+HF Cut Off, LA, USA",4.4,43,2
ChIJU9T5Jej0IIYRX3DX86T0sj8,El Paso Mexican Grill,29.4728225,-90.3133813,"FMFP+4J Cut Off, LA, USA",4.3,305,2
ChIJdW3mVR71IIYRMYVi_vjCfPQ,Spahr's at the Station,29.468337,-90.32552,"FM9F+8Q Cut Off, LA, USA",4.4,244,2
ChIJP3NXRI70IIYROrjS1d0hVsE,Mommie Jo's,29.4949501,-90.32941459999999,"FMVC+X6 Cut Off, LA, USA",4.6,147,2
ChIJ0SbrbY70IIYRdp4Ex9rXZwY,Cher Amie's,29.494072,-90.329519,"FMVC+J5 Cut Off, LA, USA",4.7,265,2
ChIJl139QEGzn4gRwdJ9B1AsXDs,Dad's Bar & Grill LLC. RESTAURANT,29.3986275,-89.61015700000002,"99XQ+FW Empire, LA, USA",4.2,159,2
ChIJnfp-53XzIIYR-7ru68V731o,McDonald's,29.54838819999999,-90.3443554,"GMX4+97 Cut Off, LA, USA",3.4,257,1
ChIJozO960ryIIYRi_4s66Ri1qI,Popeyes Louisiana Kitchen,29.5511268,-90.34792069999999,"HM22+FR Cut Off, LA, USA",3.5,214,1
ChIJOeK260ryIIYR2f-G3GYlxl8,Happy Gardens Restaurant,29.5505431,-90.3477296,"HM22+6W Larose, LA, USA",4.5,140,1
ChIJG385GADYn4gR_jmhGpymJq0,Lighthouse Restaurant,29.2313658,-89.9985196,"62J2+GH Grand Isle, LA, USA",3.8,68,2
ChIJH_ZoOADYn4gRlGWSXYNBg_A,Starfish Restaurant,29.230342,-89.999466,"62J2+46 Grand Isle, LA, USA",4.2,517,2
ChIJU7RKmHBqsYkRzZas0VmfGws,Maggiano's Little Italy,37.655207,-77.6178022,"M94J+3V Richmond, VA, USA",4.4,2061,2
ChIJmS5uIhFrsYkRGtjKWe4VOgg,The Melting Pot,37.6049031,-77.592522,"JC34+XX Henrico, VA, USA",4.4,575,3
ChIJr6Juen1qsYkRLnkDur-lKig,Peter Chang Cafe,37.65300199999999,-77.6082589,"M93R+6M Glen Allen, VA, USA",4.4,882,2
ChIJmVJ0Ur1qsYkRoCjTshMZBaY,Capital Ale House,37.6483738,-77.58394659999999,"JCX8+8C Glen Allen, VA, USA",4.3,908,2
ChIJRasWjHRqsYkRsvRikYH2-eo,"Shula's Steak House, Richmond, VA",37.6590689,-77.6281485,"M95C+JP Richmond, VA, USA",4.1,96,3
ChIJy9WuNQUVsYkRmt5SRSGo854,Buffalo Wild Wings,37.62036919999999,-77.5258535,"JFCF+4M Richmond, VA, USA",3.6,1050,2
ChIJx7XXlwEVsYkRv_ckh9d84-Q,Olive Garden Italian Restaurant,37.61203,-77.52079499999999,"JF6H+RM Richmond, VA, USA",4.2,1931,2
ChIJSbRWIb1qsYkRzMdyaa92vfE,Silver Diner- Innsbrook,37.647429,-77.58211,"JCW9+X5 Glen Allen, VA, USA",4.2,2158,2
ChIJBcp1604JtIkR9_zAwtHRPk4,Barbeque Exchange,38.1325704,-78.18660419999999,"4RM7+29 Gordonsville, VA, USA",4.6,1781,2
ChIJF0-bSmoUsYkRRxm78iGnOMY,Jason's Deli,37.5838563,-77.4981749,"HGM2+GP Richmond, VA, USA",4.4,1076,2
ChIJt33ecwkUsYkReaWRGici66E,Stella's,37.5675531,-77.48641909999999,"HG97+2C Richmond, VA, USA",4.7,1133,2
ChIJkdgD4L1qsYkR7TsORSvy_hw,Cupertino's N.Y. Bagels and Deli,37.6430121,-77.5831304,"JCV8+6P Henrico, VA, USA",4.6,408,1
ChIJ6V-Ijg8TsYkR3CDB6V9FlUg,Jason's Deli,37.5355396,-77.5261362,"GFPF+6G Richmond, VA, USA",4.3,279,2
ChIJJw0l9LFqsYkR5Zm1ZpTa4Jw,Golden Corral Buffet & Grill,37.64543529999999,-77.5686722,"JCWJ+5G Glen Allen, VA, USA",3.9,2933,2
ChIJ7Ti-LaZtsYkR8iu4S4ieYxM,Ruth's Chris Steak House,37.5248667,-77.610793,"G9FQ+WM Midlothian, VA, USA",4.6,786,4
ChIJR6PaCXBqsYkRZexsRKtBaB4,Chipotle Mexican Grill,37.6537168,-77.6157522,"M93M+FM Richmond, VA, USA",3.6,478,1
ChIJB5Pq1fhrsYkRu2-nVrpHFBw,Portico Restaurant,37.5847222,-77.6469444,"H9M3+V6 Richmond, VA, USA",4.6,429,2
ChIJ3bIesYhqsYkRsZAJ1EK4TgU,Bonefish Grill,37.6490274,-77.6025159,"J9XW+JX Glen Allen, VA, USA",4.2,849,2
ChIJsYkoKRW2pIcR0rA8tMWGi8g,Subway,38.070032,-97.89221719999999,"34C5+24 Hutchinson, KS, USA",4.2,25,1
ChIJ6SGlxGYTu4cRv2jaayhFX-M,Subway,38.0627509,-97.3455589,"3M73+4Q Newton, KS, USA",3.8,114,1
ChIJtR4mSKm3pIcR4dyvE64P6_M,Little Caesars Pizza,38.086815,-97.92251999999999,"33PG+PX Hutchinson, KS, USA",3.8,133,1
ChIJf-8jx122pIcRot5UNUWeDtA,Subway,38.086865,-97.8958205,"34P3+PM Hutchinson, KS, USA",4.0,112,1
ChIJ6fQEWGtqu4cRCVJPpOBbfhs,Subway,38.14434749999999,-97.422384,"4HVH+P2 Hesston, KS, USA",4.2,84,1
ChIJB_KbbXsTu4cRgnjeA5YQF1M,Little Caesars Pizza,38.054078,-97.34562199999999,"3M33+JQ Newton, KS, USA",3.7,144,1
ChIJF6bXczy2pIcRBdkUOsHAIgc,Subway,38.0652139,-97.89897099999999,"3482+3C Hutchinson, KS, USA",4.2,108,1
ChIJA8_0VqO3pIcRntjR4zom_70,Subway,38.0807517,-97.93231349999999,"33J9+83 Hutchinson, KS, USA",4.1,103,1
ChIJzfQc4CXMpIcRlL6h6osuKfM,Carriage Crossing Restaurant and Bakery,37.938694,-97.86623379999999,"W4QM+FG Yoder, KS, USA",4.7,2672,2
ChIJzxNb_Lw-u4cRSvBLdezfNCU,Subway,38.00529890000001,-97.506351,"2F4V+4F Halstead, KS, USA",3.9,65,1
ChIJ95foYvV7u4cR9KtyrJ3yHMg,Subway,38.3483549,-97.1983776,"8RX2+8J Hillsboro, KS, USA",4.0,41,1
ChIJ3dSWUcWxvIcRIMO2J5TS-tM,Subway,38.58038919999999,-97.6662092,"H8JM+5G Lindsborg, KS, USA",3.2,79,1
ChIJOUPyDba3pIcRbxbelgrJlu8,Papa John's Pizza,38.0716477,-97.92176889999999,"33CH+M7 Hutchinson, KS, USA",4.4,148,1
ChIJg0YbE5lXu4cRtjnGehnD8fQ,Subway,38.3699944,-97.6294887,"999C+X6 McPherson, KS, USA",4.0,120,1
ChIJgy8_FWceu4cRmJsSLADalrc,Subway,37.7843875,-97.3735428,"QJMG+QH Wichita, KS, USA",4.3,12,1
ChIJszH4oEscu4cRXkXOneI-oRY,Subway,37.7962514,-97.3258616,"QMWF+GM Park City, KS, USA",3.9,175,1
ChIJieXrA923pIcRlIskmkQU3vY,Pizza Hut,38.0569492,-97.9350659,"3347+QX Hutchinson, KS, USA",3.7,160,1
ChIJFX3KakZWu4cRWAbOgPuqNQY,Pizza Hut,38.3760166,-97.6665352,"98GM+C9 McPherson, KS, USA",3.9,73,1
ChIJ33KYhFO2pIcRkqFDHM_m9Do,Pizza Hut,38.0869003,-97.9104017,"33PQ+QR Hutchinson, KS, USA",3.9,241,1
ChIJJ15ckGzW94YRv2kUdRUiVeU,Subway,30.5666917,-100.6441759,"H984+M8 Sonora, TX, USA",3.8,46,1
ChIJY9kHP5EKWIYRq_n1XiSUetA,El Corral,30.8554589,-100.6051725,"V94V+5W Eldorado, TX, USA",3.7,56,2
ChIJYeI-JY0KWIYRJXQjX96Fn54,Shell,30.8633258,-100.5979372,"VC72+8R Eldorado, TX, USA",3.5,6,2
ChIJ7w5pukPW94YRMSW0gYvUJeY,Taco Grill,30.576446,-100.6496894,"H9G2+H4 Sonora, TX, USA",4.3,133,1
ChIJlaMzlkPW94YRKrRQW6gPtL8,La Mexicana,30.57666669999999,-100.6494444,"H9G2+M6 Sonora, TX, USA",4.0,445,2
ChIJBa74yBQCWIYR7-WoHNiONNI,Cooper's Bar-B-Q,31.17916600000001,-100.5077642,"5FHR+MV Christoval, TX, USA",4.4,169,2
ChIJZ37nkEPW94YRnOpH3E8J_SM,Pizza Hut,30.5776058,-100.6498906,"H9H2+22 Sonora, TX, USA",3.7,224,1
ChIJ1U-egNHQ94YRRUkUhsQb3N0,Sutton County Steak House,30.5801445,-100.6483684,"H9J2+3M Sonora, TX, USA",4.1,420,2
ChIJHS_-_ULW94YRxr9cnMVk7F8,Sonic Drive-In,30.5755,-100.6510395,"H8GX+6H Sonora, TX, USA",3.4,454,1
ChIJk1G0nJEKWIYRqFVz3eFbohs,Pizza Pro,30.8633079,-100.5980181,"VC72+8Q Eldorado, TX, USA",3.3,3,1
ChIJmZ8PvvV5WIYRZqm8IJHhhl4,Subway,30.57136899999999,-100.58553,"HCC7+GQ Sonora, TX, USA",2.6,7,1
ChIJPZKTEEPW94YRTWW536qpJcc,Dairy Queen Store,30.576162,-100.651549,"H8GX+F9 Sonora, TX, USA",3.9,379,1
ChIJm3seQQNZ24cRCK3CzL2whas,Subway,38.5852491,-92.2540825,"HPPW+39 Jefferson City, MO, USA",4.0,38,1
ChIJaYBS9URe24cRWLDZOh-HkhE,Subway,38.5764854,-92.17215329999999,"HRGH+H4 Jefferson City, MO, USA",3.9,78,1
ChIJGSm_t-de24cR3TY22semj2g,Subway,38.5814003,-92.2021504,"HQJX+H4 Jefferson City, MO, USA",3.6,85,1
ChIJbT5XGv5d24cRobl-3N-626Q,Subway,38.5488138,-92.1491794,"GVX2+G8 Jefferson City, MO, USA",4.0,101,1
ChIJa9a-vRp424cRpmGmexfrbUY,Subway,38.47947810000001,-91.841442,"F5H5+QC Linn, MO, USA",4.4,105,1
ChIJdxAa1GCi24cRMXTdKzU17aY,Subway,38.2852904,-91.72017579999999,"77PH+4W Belle, MO, USA",4.0,41,1
ChIJ27x2RgCP3IcR3xrzlL7L3WM,Subway,38.8449259,-91.94695089999999,"R3V3+X6 Fulton, MO, USA",4.0,172,1
ChIJ4RjdvBVe24cR2b0_6riCRTw,Prison Brews,38.5687037,-92.1615465,"HR9Q+F9 Jefferson City, MO, USA",4.4,529,2
ChIJOaZfWfOO3IcR3u7e3HpVdsI,Subway,38.8662844,-91.9444408,"V384+G6 Fulton, MO, USA",4.0,91,1
ChIJYzM6ImcJ3IcRhX0hii3hyik,Subway,38.7048538,-91.437483,"PH37+W2 Hermann, MO, USA",3.7,59,1
ChIJ-RZDP0Re24cRtQ-kRF86JyM,Madison's,38.57678060000001,-92.1707639,"HRGH+PM Jefferson City, MO, USA",4.5,656,2
ChIJj66UZtBe24cR_LRFNHMzPQY,Little Caesars Pizza,38.580517,-92.21446,"HQJP+66 Jefferson City, MO, USA",4.1,132,1
ChIJOYm60wNZ24cRB_Fhlzxa6hw,Jimmy John's,38.5856202,-92.2571263,"HPPV+64 Jefferson City, MO, USA",4.3,106,1
ChIJH3o8MVFe24cRzqIZVoIYuE0,Paddy Malone's Pub,38.5837432,-92.1790432,"HRMC+F9 Jefferson City, MO, USA",4.7,524,2
ChIJe9iv50Re24cRdvx95m7lJ3U,Arris' Pizza,38.5772995,-92.17330299999999,"HRGG+WM Jefferson City, MO, USA",4.5,1306,2
ChIJBTLQr55e24cRPyDS0uwqwvQ,McDonald's,38.5531756,-92.1996028,"HR32+75 Jefferson City, MO, USA",3.4,978,1
ChIJb_LiHvBe24cRvq9tlE5n8Qc,El Jimador Mexican Restaurant,38.5795386,-92.19395209999999,"HRH4+RC Jefferson City, MO, USA",4.3,618,1
ChIJsSZ2PoNe24cRdf1PHFuwhPw,China Wok,38.5509905,-92.1915277,"HR25+99 Jefferson City, MO, USA",3.8,131,1
ChIJ887MkQtM24cRJtt2mRKQw-o,Subway,38.3811266,-92.3977115,"9JJ2+FW Eugene, MO, USA",3.7,61,1
ChIJz1JP_r3f9YcR7sZh7eIk9XY,Emma Krumbee's Restaurant & Bakery,44.6152992,-93.7638633,"J68P+4F Belle Plaine, MN, USA",4.0,1322,2
ChIJ53xkTno69IcRZrCGwLkO078,Berry Blendz,44.1726518,-93.95252099999999,"52FW+3X Mankato, MN, USA",4.3,20,1
ChIJ87-nDw2S9YcRsUFVw16p1V8,Subway,44.7678239,-94.13029829999999,"QV99+4V Glencoe, MN, USA",4.1,163,1
ChIJZY8eLjf-9IcRQOKdS0RUtBE,Subway,44.298414,-94.4475149,"7HX2+9X New Ulm, MN, USA",3.6,129,1
ChIJ96q-IT8z9IcR-g-knoWWsa4,Subway,44.3154111,-93.9651705,"828M+5W Saint Peter, MN, USA",3.7,156,1
ChIJU_P1GOo59IcR1COZMuB5U7I,Pagliai's Pizza,44.16319999999999,-94.0070306,"5X7V+75 Mankato, MN, USA",4.7,1146,2
ChIJe5Hkid3P9YcRRcm_HqCLj7I,Subway,44.465088,-93.9129739,"F38P+2R Le Sueur, MN, USA",3.8,98,1
ChIJMxSdqYc39IcRNTSIiE_EcT8,Subway,44.1795345,-94.03743569999999,"5XH7+R2 North Mankato, MN, USA",4.1,68,1
ChIJi2UM87U59IcRwaejeTmqjRQ,Subway,44.1619898,-94.0113421,"5X6Q+QF Mankato, MN, USA",4.1,259,1
ChIJhR6DLJ0w9IcRePzsLizRTqQ,Buffalo Wild Wings,44.18199569999999,-93.9569983,"52JV+Q6 Mankato, MN, USA",4.2,1466,2
ChIJ5wkq1eg59IcRiNCHi7Vy1n0,Number 4 American Bar & Kitchen,44.1660906,-94.0023708,"5X8X+C3 Mankato, MN, USA",4.3,617,3
ChIJSeIFlmM69IcRnt6ZhEA3ZUo,Mongolian Grill,44.1678826,-93.9515943,"529X+59 Mankato, MN, USA",4.4,518,2
ChIJHWWVp-k59IcR9KaOMeCaRPY,Olives Mediterranean Restaurant,44.165802,-94.0056793,"5X8V+8P Mankato, MN, USA",4.3,335,2
ChIJgz1KFOwM9ocRlSPVFmJ4D-s,Subway,44.66693129999999,-93.6379762,"M986+QR Jordan, MN, USA",4.2,76,1
ChIJ7WsniOk59IcR_0ASBFtUpQY,Blue Bricks,44.164145,-94.006277,"5X7V+MF Mankato, MN, USA",4.2,508,2
ChIJPdXSrGI69IcRkj_7fLGGKHg,Wow! Zone,44.1718676,-93.9436939,"53C4+PG Mankato, MN, USA",4.3,1061,2
ChIJnwlAVCL6NYYRFfRm5AVJKHQ,Subway,33.13485050000001,-94.96932160000001,"42MJ+W7 Mount Pleasant, TX, USA",3.6,51,1
ChIJbazaOo84NoYRBdcavrbxK-Y,Jason's Deli,32.5434537,-94.748937,"G7V2+9C Longview, TX, USA",4.4,969,2
ChIJPQc8TM4bNoYRnyTH-GO-wC4,Subway,32.7251177,-94.942304,"P3G5+23 Gilmer, TX, USA",4.3,154,1
ChIJvzXWYUo_NoYR_b5la36FdNs,Olive Garden Italian Restaurant,32.541113,-94.747323,"G7R3+C3 Longview, TX, USA",4.2,2090,2
ChIJE-B2FNU4NoYRMUzh8uOvEu0,Wingstop,32.5270055,-94.7819323,"G6G9+R6 Longview, TX, USA",4.0,252,2
ChIJk8SrSkNHNoYRKmQR_YSjh4Y,Subway,32.5209739,-94.717314,"G7CM+93 Longview, TX, USA",4.3,117,1
ChIJ1RxEN0o_NoYRFXmuK3f5htA,Chili's Grill & Bar,32.542955,-94.7464509,"G7V3+5C Longview, TX, USA",4.0,1143,2
ChIJHW1EJDQ_NoYRNG53NouwLGo,Papacita's,32.54392,-94.751778,"G6VX+H7 Longview, TX, USA",4.4,2970,2
ChIJ5Uxl0jM_NoYREIDApNlOn9Q,Cafe Barron's,32.543222,-94.75508359999999,"G6VV+7X Longview, TX, USA",4.4,173,2
ChIJydb7djM_NoYR5hB3v-2g8oo,Red Lobster,32.5404657,-94.7548156,"G6RW+53 Longview, TX, USA",3.9,1136,2
ChIJtevCi1I_NoYR6BCChLKEZHw,Texas Roadhouse,32.541454,-94.7368702,"G7R7+H7 Longview, TX, USA",4.6,3143,2
ChIJBQAGcO04NoYRYTxHq7ZJcsw,Butcher Shop,32.5051861,-94.75050829999999,"G64X+3Q Longview, TX, USA",4.4,2229,2
ChIJ334CioU4NoYRQild5d_2HO4,Subway,32.5009154,-94.7380895,"G726+9Q Longview, TX, USA",3.9,236,1
ChIJQ57-rlZHNoYRWTxYuLH7yYs,Starbucks,32.546038,-94.72761500000001,"G7WC+CX Longview, TX, USA",4.3,600,2
ChIJoW6mloD2NoYRWwwCIMcgFEg,Subway,32.5491038,-94.35502919999999,"GJXV+JX Marshall, TX, USA",4.3,223,1
ChIJAxdDaLbwNYYRqIA3Y2wFbz0,Applebee's Grill + Bar,33.18034149999999,-94.97019859999999,"52JH+4W Mount Pleasant, TX, USA",3.7,858,2
ChIJr-uC2z9TBogRCgiw8nS1-Zo,The Great Dane Pub & Brewing Company,43.074447,-89.380175,"3JF9+QW Madison, WI, USA",4.3,904,2
ChIJy_R_dz9TBogRz4rN3JmZd4o,Graze,43.0750867,-89.3821484,"3JG9+24 Madison, WI, USA",4.4,1622,2
ChIJHxgqqEBTBogRJLOAk9gWpBg,The Old Fashioned,43.0762529,-89.3837399,"3JG8+GG Madison, WI, USA",4.5,2749,2
ChIJ4wHpt7xWBogRO3ipJGRCz_c,Subway,43.1109908,-89.3129201,"4M6P+9R Madison, WI, USA",3.4,14,1
ChIJJxyDjjhTBogRoaXIlEj_rL0,The Coopers Tavern,43.0751065,-89.3861702,"3JG7+2G Madison, WI, USA",4.4,1309,2
ChIJo___A_ZWBogR0qFA1_tRAfI,Texas Roadhouse,43.13370369999999,-89.2987567,"4PM2+FF Madison, WI, USA",4.3,2591,2
ChIJDWlcMmtTBogRYnPoIJBC5EU,Essen Haus Restaurant and Bar,43.076216,-89.3765367,"3JGF+F9 Madison, WI, USA",4.4,977,2
ChIJheOiSjlTBogRXMC7hQYFqAo,Tornado Steak House,43.0724836,-89.3845969,"3JC8+X5 Madison, WI, USA",4.6,1319,3
ChIJS-sgezRTBogRMMQhlZ9JNes,Nitty Gritty-Madison,43.071836,-89.3956336,"3JC3+PP Madison, WI, USA",4.2,1516,2
ChIJpwlkq9BQBogRYalCFdb4IJc,Great Dane Pub & Brewing Co. - Eastside,43.085328,-89.279838,"3PPC+43 Madison, WI, USA",4.0,481,2
ChIJQ6yvV357BogRL6SO36I5BZk,Jimmy John's,43.08932129999999,-88.907671,"33QR+PW Lake Mills, WI, USA",3.7,95,1
ChIJAyWDx2tTBogRtlWv_fF2OpU,Brass Ring Bar & Restaurant,43.0799889,-89.37631549999999,"3JHF+XF Madison, WI, USA",4.3,549,2
ChIJ5WhuHzxTBogRMFctATM2bew,Paisan's Restaurant,43.07076910000001,-89.3833014,"3JC8+8M Madison, WI, USA",4.2,1033,2
ChIJHaWbXDRTBogRomwymGRKiBQ,Dotty Dumpling's Dowry,43.07283279999999,-89.3956602,"3JF3+4P Madison, WI, USA",4.5,1714,2
ChIJl4BCEzVTBogRkf9DfSCvfnI,Starbucks,43.074789,-89.397007,"3JF3+W5 Madison, WI, USA",4.2,343,2
ChIJya2F33ZTBogRGoHtmGPoUdM,Weary Traveler Freehouse,43.08324440000001,-89.364025,"3JMP+79 Madison, WI, USA",4.6,1102,2
ChIJVVVVVUBTBogRS4gTABcm-wo,Glass Nickel Pizza Co. - Madison East,43.0941222,-89.34126119999999,"3MV5+JF Madison, WI, USA",4.5,1107,2
ChIJBSP6wd3GWIYR3ASOhwUA3iE,Jailhouse Bar & Grill,30.01671720000001,-100.2081241,"2Q8R+MQ Rocksprings, TX, USA",4.4,95,2
ChIJHa-gerX0qFQRIWGtLqTYXg8,Mountain Village Restaurant,44.2170366,-114.9322221,"6389+R4 Stanley, ID, USA",4.3,469,2
ChIJuRO2par3qFQRgzQqEzXGpsI,Rod-N-Gun Saloon,44.2164285,-114.9391738,"6386+H8 Stanley, ID, USA",4.9,17,1
ChIJHV-dTVX4qFQRnT6KlzJ9Xl0,Bridge Street Grill and Cabins,44.2322801,-114.9190099,"63JJ+W9 Stanley, ID, USA",4.1,162,2
ChIJFerUwar3qFQR92BWTSrZ7DQ,Papa Brunee's,44.216012,-114.9379348,"6386+CR Stanley, ID, USA",4.6,330,2
ChIJ7xjJkiOyc4cRS18KmBw9A8c,Subway,40.1182944,-102.7208866,"479H+8J Yuma, CO, USA",3.8,42,1
ChIJkwa9WX_21oARkC3DJOXFodU,Dairy Queen Grill & Chill,40.1182034,-102.717694,"479J+7W Yuma, CO, USA",3.6,206,1
ChIJR1wlWv9qcocRQ0D5xDN65es,Subway,40.15892669999999,-103.2103817,"5Q5Q+HR Akron, CO, USA",4.0,85,1
ChIJ93d_gyayc4cRQWU9qYhvAJ0,Pizza Hut,40.1174835,-102.7185685,"478J+XH Yuma, CO, USA",4.0,175,1
ChIJ9XEZhzuyc4cRGIoWWF9h6ww,Main Event Bar & Grill,40.118689,-102.728475,"479C+FJ Yuma, CO, USA",4.0,170,2
ChIJNYCKZstIcocRDX4QIy9ympA,Mom's Kitchen Cafe,40.1489509,-102.961141,"42XQ+HG Otis, CO, USA",4.6,165,2
ChIJ-xUWXCOyc4cR3f0c78KMaxI,7-Eleven,40.1181917,-102.723484,"479G+7J Yuma, CO, USA",3.9,8,1
ChIJNZhJYYqxc4cR54ORLCSIIac,La Cabaña del Amigo,40.1178844,-102.7123538,"479Q+53 Yuma, CO, USA",4.4,127,2
ChIJK5v1IVZqcocReQ71__jp62A,Five Star Mexican American,40.15884169999999,-103.2130528,"5Q5P+GQ Akron, CO, USA",4.6,274,1
ChIJA6IuHAkecocRmq6mX4lJP-0,Overland Trail Cafe,40.5012807,-103.2622405,"GP2Q+G4 Atwood, CO, USA",4.5,87,1
ChIJLYoi3tuutVQRcXi-UrSQU4s,Denio Junction,41.952093,-118.6271578,"X92F+R4 Denio, NV, USA",4.0,236,2
ChIJ_6IROvAsZogRP2L8wt4zW9M,Lighthouse Restaurant,37.1014072,-85.6344405,"4928+H6 Sulphur Well Historic District, KY, USA",4.5,345,2
ChIJt-ziX7fdZ4gRl6pqJgELoWI,Subway,37.0937774,-85.30465389999999,"3MVW+G4 Columbia, KY, USA",3.6,61,1
ChIJ2aDem0S5Z4gRYgrCp7y8000,Subway,36.7896733,-85.37036100000002,"QJQH+VV Burkesville, KY, USA",4.3,72,1
ChIJu_w2KcP6Z4gRbK8fo7insn4,Little Caesars Pizza,37.06011040000001,-85.0720983,"3W6H+25 Russell Springs, KY, USA",3.7,99,1
ChIJ3anwLJQ9ZogRGiZ0oj0SCNg,Subway,36.9961492,-85.9120392,"X3WQ+F5 Glasgow, KY, USA",4.6,51,1
ChIJ8SCbfRR5aIgRSbZVz3rx3lI,Subway,37.2727848,-85.4964342,"7GF3+4C Greensburg, KY, USA",4.5,28,1
ChIJq3B73nROZogRe2GhRVvIMhA,Subway,36.7237964,-85.68543969999999,"P8F7+GR Tompkinsville, KY, USA",4.2,13,1
ChIJ4fUq0WlyaIgRwklNFhLV8s8,Subway,37.3549757,-85.3264818,"9M3F+XC Campbellsville, KY, USA",4.5,102,1
ChIJP61Jz3aQZ4gR66I0U-6eazg,Subway,36.68730079999999,-85.1343629,"MVP8+W7 Albany, KY, USA",4.0,21,1
ChIJo6ji-Zs9ZogRiN5v2vj8qIk,Papa John's Pizza,37.00712710000001,-85.916192,"234M+VG Glasgow, KY, USA",4.3,156,1
ChIJU6bmI_z6Z4gR9xmhDCQRauU,Papa John's Pizza,37.062657,-85.0698959,"3W7J+32 Russell Springs, KY, USA",3.7,78,1
ChIJyyh24UByaIgRp_7-taSTBZg,Mr Gatti's Pizza,37.35178129999999,-85.3319602,"9M29+P6 Campbellsville, KY, USA",4.2,461,1
ChIJgbcGctcXZogRfqOy-CDWkR4,Applebee's Grill + Bar,37.023205,-85.933633,"23F8+7G Glasgow, KY, USA",3.8,730,2
ChIJsx4534vcZ4gRrHd8qOEQ4SU,Subway,37.0756224,-85.3344554,"3MG8+66 Columbia, KY, USA",3.4,8,1
ChIJPw0jJJ77Z4gRY43HEqTr35E,Subway,37.060859,-85.07155589999999,"3W6H+89 Russell Springs, KY, USA",4.2,187,1
ChIJLawxrGZyaIgReH9GOe4cDEg,Creek Side Family Restaurant,37.359585,-85.32058200000002,"9M5H+RQ Campbellsville, KY, USA",4.3,474,1
ChIJ3aFJVOprqYkRNE1lJFz1Msc,Mike's Farm,34.86332449999999,-77.63121989999999,"V979+8G Beulaville, NC, USA",4.7,1904,2
ChIJjefLcefWq4kRs2phNsleRvY,Subway,34.7409804,-77.9747962,"P2RG+93 Wallace, NC, USA",4.1,87,1
ChIJtQnPg8jXq4kRA-EXXeZNCCo,Mad Boar Restaurant,34.7569556,-77.9482124,"Q342+QP Wallace, NC, USA",4.1,1287,2
ChIJYesefnMqqokRM_tt44ooTfo,Subway,34.56114960000001,-77.9194752,"H36J+F6 Burgaw, NC, USA",3.7,109,1
ChIJ2674WCuGqYkRWjy_7cS8WDs,Subway,34.439867,-77.8773088,"C4QF+W3 Rocky Point, NC, USA",3.7,45,1
ChIJeVPr4dnfq4kRD663Rt1mzo8,Subway,34.9600132,-77.9625217,"X26P+2X Kenansville, NC, USA",4.2,91,1
ChIJk1hO_79nqYkRiTlNdkIhwdY,Subway,34.9259849,-77.7900705,"W6G5+9X Beulaville, NC, USA",4.0,134,1
ChIJnxSB0o2JqYkR_sfxnx-Ehco,Subway,34.3568709,-77.9001463,"934X+PW Castle Hayne, NC, USA",3.9,75,1
ChIJaxf2HzsVqYkRzz_zwWJ6EXY,Subway,34.8924564,-77.5470662,"VFR3+X5 Richlands, NC, USA",4.2,92,1
ChIJ60wpMuURqYkRyK-dH7cG5hI,Subway,34.75174359999999,-77.4624951,"QG2Q+M2 Jacksonville, NC, USA",4.1,122,1
ChIJA_wBdf-ZqYkR-wh4DpQ2aRs,Subway,34.4138007,-77.6518042,"C87X+G7 Hampstead, NC, USA",3.8,34,1
ChIJSRAG-qyRqYkRGsETx0-bMCA,Subway,34.3756987,-77.7027471,"97GW+7W Hampstead, NC, USA",3.8,84,1
ChIJvYRtJSZFqYkRTGsTnNKcAfw,Subway,35.0757937,-77.7328783,"37G8+8R Pink Hill, NC, USA",4.1,88,1
ChIJtZBaMgARqYkRlJ4iDxrJszE,Little Caesars Pizza,34.782288,-77.42443,"QHJG+W6 Jacksonville, NC, USA",3.3,92,1
ChIJSRAG-qyRqYkRPpzkRSOl6Ig,Reel Pizza,34.3705149,-77.7068046,"97CV+67 Hampstead, NC, USA",4.3,132,1
ChIJ1cDdkvwNqYkR-8mERtx5by0,Domino's Pizza,34.73269439999999,-77.4746069,"PGMG+35 Jacksonville, NC, USA",4.1,259,1
ChIJk2XSdY0QqYkRK_DLUQQ8mMQ,The Honey Baked Ham Company,34.78664850000001,-77.39820139999999,"QJP2+MP Jacksonville, NC, USA",3.7,46,2
ChIJQyrTiQPlq4cR28VFq9ay1no,Huddle House,35.40842139999999,-99.379689,"CJ5C+94 Elk City, OK, USA",3.8,722,1
ChIJf0s0O5ccrIcR9Ij_p6yVAUY,Subway,35.5056788,-98.9860597,"G247+7H Clinton, OK, USA",4.1,94,1
ChIJw5sqFqzlq4cRd580C82NETs,Subway,35.4114739,-99.41881529999999,"CH6J+HF Elk City, OK, USA",4.1,106,1
ChIJc22gVG0DrIcRRyiqhoIGSKI,Subway,35.5181835,-98.870961,"G49H+7J Clinton, OK, USA",4.2,97,1
ChIJJ6ejtnnEq4cR81l-EDDwBpU,Subway,35.335554,-99.5945824,"8CP4+65 Sayre, OK, USA",3.8,63,1
ChIJqbSn2GQmrIcRcG12454Amaw,Subway,35.5243596,-98.6906781,"G8F5+PP Weatherford, OK, USA",3.9,23,1
ChIJR_Q2-kASrIcRGCruRQSTWFo,Subway,35.2950109,-98.9880158,"72W6+2Q New Cordell, OK, USA",4.2,42,1
ChIJgQ78asILsocR09YqzGDzZNA,Sonic Drive-In,35.2913111,-99.1376239,"7VR6+GX Dill City, OK, USA",3.8,644,1
ChIJ8T09zPIcrIcRwG7GGMzoaA4,Sonic Drive-In,35.5157357,-98.97812859999999,"G28C+7P Clinton, OK, USA",3.5,493,1
ChIJiaURGZkcrIcRUHtin287nHE,Braum's Ice Cream & Burger Restaurant,35.4997411,-98.9881932,"F2X6+VP Clinton, OK, USA",4.3,548,1
ChIJPTL9x5kcrIcRVmcsue2gCzU,KFC,35.50521140000001,-98.98750849999999,"G246+3X Clinton, OK, USA",2.9,346,1
ChIJPbjRWWAcrIcRI7oZcDTBRFw,Cafe Downtown Clinton,35.51427049999999,-98.9661481,"G27M+PG Clinton, OK, USA",4.4,42,2
ChIJc4JSuXPlq4cRyzXM41ylato,McDonald's,35.3925315,-99.4056023,"9HVV+2Q Elk City, OK, USA",3.6,864,1
ChIJkSNIRdbkq4cRfBRsq32SsKE,Subway,35.4230083,-99.3723819,"CJFH+62 Elk City, OK, USA",4.2,165,1
ChIJMyv_76vlq4cRi7qitjsvgBU,The Dugout C Store,35.4114393,-99.4168835,"CH6M+H6 Elk City, OK, USA",4.5,50,2
ChIJJwwE59Xkq4cRHWwj46_IBOQ,Roma's Restaurant,35.42112779999999,-99.37237069999999,"CJCH+F3 Elk City, OK, USA",4.5,383,2
ChIJyaDyKfMcrIcRwg5rQ8cJHog,Shell,35.5150707,-98.9768957,"G28F+26 Clinton, OK, USA",4.3,40,2
ChIJhXi5ihMKzVIRqRp6Jzs0w-U,Subway,45.338913,-97.5196509,"8FQJ+H4 Webster, SD, USA",4.3,58,1
ChIJTVcqBcMAzVIRv5dxICJC4RU,The Purple Cow,45.34129950000001,-97.30463429999999,"8MRW+G4 Waubay, SD, USA",4.7,167,2
ChIJX6Y65a3wzFIRiCKWcdz0mQo,Subway,45.3112712,-97.0464295,"8X63+GC Summit, SD, USA",3.7,11,1
ChIJl4NoxRMKzVIR7IYIQJKHJkU,A&W Restaurant,45.3404584,-97.51951700000001,"8FRJ+55 Webster, SD, USA",4.3,406,1
ChIJCVQfAnfozVIRsTdz3A2oKug,Subway,45.7908319,-97.7439874,"Q7R4+8C Britton, SD, USA",4.0,50,1
ChIJwadFzTJHzFIRuUXYJhaKyEs,Taco John's,45.6598952,-97.04537769999999,"MX53+XR Sisseton, SD, USA",4.1,182,1
ChIJw9FuAnnozVIRBwC1oGZ_sSc,Veterans of Foreign Wars,45.79161209999999,-97.7509378,"Q6RX+JJ Britton, SD, USA",4.3,49,1
ChIJGZBpxRIKzVIRB1x8Va-2dAw,The Galley Hotel Bar & Grill,45.3417587,-97.52416219999999,"8FRG+P8 Webster, SD, USA",4.1,154,2
ChIJ3W30ELxHzFIR9kcxPG0o6PY,Subway,45.66048809999999,-97.02111049999999,"MX6H+5H Sisseton, SD, USA",3.9,80,1
ChIJ0wII281AzFIRtAlNWrdr1vc,"Rosalie's Restaurant, Bakery and Lounge",45.6606956,-97.0397754,"MX66+73 Sisseton, SD, USA",4.3,202,2
ChIJ1X470BMKzVIRXtKNmgRaoVE,Pereboom Cafe,45.341401,-97.519131,"8FRJ+H8 Webster, SD, USA",4.4,204,2
ChIJAQAAtFX3zFIRkaRi6R7Y9tw,Caribou Coffee,45.3112619,-97.04594739999999,"8X63+GJ Summit, SD, USA",4.3,41,2
ChIJtYdY41vJzVIR0cjREadV8vc,Charlies Resort,45.72553800000001,-97.4261118,"PHGF+6H Lake City, SD, USA",4.7,18,1
ChIJP1fzNJ3tx1IRQadjYQxAXNg,Subway,47.5784886,-95.75742749999999,"H6HV+92 Fosston, MN, USA",4.0,35,1
ChIJe6NoZDTfx1IR5h21D6xzwE4,Subway,47.3122972,-95.9639766,"826P+WC Mahnomen, MN, USA",3.9,122,1
ChIJSfX35obtx1IRjKRb4wHM7iM,Dairy Queen Grill & Chill,47.57393889999999,-95.7468648,"H7F3+H7 Fosston, MN, USA",4.2,298,1
ChIJz1OWvgq6x1IR9-AlAWsMG7Q,Rhombus House of Pizza,47.698646,-96.14175,"MVX5+F7 Mentor, MN, USA",4.5,62,2
ChIJC6uqvIPtx1IRzAg3w6sLzjM,Caribou Coffee,47.57742969999999,-95.75307219999999,"H6GW+XQ Fosston, MN, USA",4.5,55,2
ChIJtb65XTuAyFIR9VSVnMoKRYQ,Twin Valley Municipal Liquor Store,47.2666702,-96.2647018,"7P8P+M4 Twin Valley, MN, USA",4.4,46,1
ChIJ56p0rSCqx1IRSX-9_jQyoF0,Shell,47.88666000000001,-96.264632,"VPPP+M4 Red Lake Falls, MN, USA",5.0,1,2
ChIJu1fsAhcZuFIRO_JW6J3XDaQ,Fireside Grill & Patio,47.5240974,-95.4336853,"GHF8+JG Bagley, MN, USA",4.5,160,2
ChIJuS8-AvwOuFIRNds8gyjqIz0,Subway,47.522392,-95.4170221,"GHCM+X5 Bagley, MN, USA",3.6,8,1
ChIJQ5-Hny8nxlIRDfogIEAKDYw,The Outpost Drive In,47.2965463,-96.4999555,"7GW2+J2 Ada, MN, USA",4.5,79,1
ChIJY4zFCVnholQRMZS6e8Fda5c,Traditions Dining,45.6473901,-118.6795246,"J8WC+X5 Pendleton, OR, USA",4.0,205,2
ChIJU_HaiEbholQRYCoiEufHjuQ,Little Caesars Pizza,45.66717,-118.80497,"M58W+V2 Pendleton, OR, USA",3.8,85,1
ChIJn7BCiVvholQRVs3lUnKntwA,Jade Garden,45.66894860000001,-118.7912285,"M695+HG Pendleton, OR, USA",4.1,182,1
ChIJ9RnTMz7holQR_oVk2d7nkBw,Dickey's Barbecue Pit,45.6589221,-118.809038,"M55R+H9 Pendleton, OR, USA",4.3,343,2
ChIJUZj2BIwjo1QRTIpev85yBVc,Shell,45.48260629999999,-118.8353852,"F5M7+2R Pilot Rock, OR, USA",3.7,16,2
ChIJKW-Ot2LiolQRvsSaP-pkD60,Subway,45.6451672,-118.6847366,"J8W8+34 Pendleton, OR, USA",3.4,103,1
ChIJj5ZB7T_holQRv2K5SOQr-sU,Denny's,45.66154110000001,-118.8058915,"M56V+JJ Pendleton, OR, USA",3.9,931,1
ChIJ2799YWbholQR3EgA_2J4zJk,Circle K,45.6623171,-118.7784465,"M66C+WJ Pendleton, OR, USA",3.0,2,1
ChIJMTSIL0TholQRIdWzOMwgy6Y,Momiji Sushi & Hibachi,45.6676668,-118.802646,"M59W+3W Pendleton, OR, USA",4.5,283,2
ChIJF7Q4W0TholQRAhnijR2yV4c,Mac's Bar & Grill,45.66796519999999,-118.8006946,"M59X+5P Pendleton, OR, USA",4.3,491,2
ChIJRWaf8FvholQR-8L6k6eM7SQ,40 Taps,45.669622,-118.7898338,"M696+R3 Pendleton, OR, USA",4.5,69,2
ChIJp8EM-lvholQRSLT3DFZxp2I,Nico's Tacos,45.6696679,-118.7898795,"M696+V2 Pendleton, OR, USA",4.6,140,1
ChIJW0BV9OLjolQR64XzCMDeOvA,Thai Crystal,45.673569,-118.782161,"M6F9+C4 Pendleton, OR, USA",4.6,298,2
ChIJrUQbzdWuTFMRwqqa4XpsHcE,McDonald's,43.6380679,-108.2128479,"JQQP+6V Thermopolis, WY, USA",3.2,507,1
ChIJeeTuktqoTFMRp4iu8droupA,Safari Club,43.64966599999999,-108.2006952,"JQXX+VP Thermopolis, WY, USA",3.9,165,2
ChIJb5zHFNOoTFMRUUU-MBlVejw,One Eyed Buffalo Brewing Company,43.6463797,-108.2112875,"JQWQ+HF Thermopolis, WY, USA",4.5,942,2
ChIJu9LLDm7KWIcRNpE9OiE8xMk,Hot Stuff Pizza,43.2359709,-108.1112054,"6VPQ+9G Shoshoni, WY, USA",4.3,36,1
ChIJ3T5EHwivTFMRTOXTcLFaZy0,Champs Chicken,43.6304385,-108.2189201,"JQJJ+5C Thermopolis, WY, USA",3.0,5,2
ChIJH8Amr9WuTFMR5HL0ey5TGVc,Pizza Hut,43.63811869999999,-108.2118136,"JQQQ+67 Thermopolis, WY, USA",3.9,251,1
ChIJqVorC9OoTFMRP5wpxOI9pDw,Black Bear Cafe,43.646356,-108.210023,"JQWQ+GX Thermopolis, WY, USA",4.6,613,2
ChIJ6exwANKoTFMR2r10Bw4gVc4,Taco John's,43.6503284,-108.2092068,"MQ2R+48 Thermopolis, WY, USA",3.6,188,1
ChIJnevQ7s2oTFMRcqD4LRtaSzE,Dairyland & Hot City Coffee,43.6508875,-108.2104084,"MQ2Q+9R Thermopolis, WY, USA",4.5,336,1
ChIJO8B5_WTKWIcR_pO7qyO5Wog,Philly's & Cream,43.23563199999999,-108.104216,"6VPW+78 Shoshoni, WY, USA",4.4,204,2
ChIJ9UNdTHPDYYcRXy0SiksHCNo,Subway,43.760158,-105.4769604,"QG6F+36 Wright, WY, USA",4.0,86,1
ChIJYZC9ZXHDYYcRDhn79Im6_e4,Open Range Steakhouse,43.7611131,-105.484227,"QG68+C8 Wright, WY, USA",4.0,88,2
ChIJHdVjljFwYYcRxT2-QZXg2NE,Penny's Diner,43.2317486,-105.2591488,"6PJR+M8 Bill, WY, USA",4.1,145,1
ChIJe7HbvBLDYYcRWebplNrsRh4,Hanks Roadside Bar and Grill,43.7615013,-105.4746386,"QG6G+J4 Wright, WY, USA",4.0,273,2
