Place ID,Name,Latitude,Longitude,Address,Rating,Ratings count,Price range
ChIJZQ6BEXZe14AR6olrRzitFFc,Subway,32.849287800000006,-115.5697058,"RCXJ+P4 Imperial, CA, USA",4.2,72,1
ChIJG3vjvDda14ARQQpdsyPpiZM,Subway,32.9624085,-115.5458493,"XF63+XM Brawley, CA, USA",3.9,24,1
ChIJ65WooQpe14ARe5yAyhIps28,Maranatha Steakhouse,32.841778999999995,-115.568291,"RCRJ+PM Imperial, CA, USA",4.5,310,2
ChIJP646YhRa14ARqb8dCyn0i5s,Pizza Hut,32.97895130000001,-115.5473301,"XFH3+H3 Brawley, CA, USA",4.2,257,1
ChIJH3Qkemla14ARaPGcgMIywEM,Little Caesars Pizza,32.97871,-115.537636,"XFH6+FW Brawley, CA, USA",4.4,193,1
ChIJF_uk7jha14ARQ2OgE_cUiVU,Las Chabelas Restaurant,32.968628,-115.54594,"XF93+FJ Brawley, CA, USA",4.2,675,2
ChIJi1WT4_Ra14AR_-yIWbd6mF4,Imperial Restaurant,32.978962100000004,-115.5173604,"XFHM+H3 Brawley, CA, USA",4.2,105,1
ChIJRSc-rUFa14ARTR2aArh3rsw,7-Eleven,32.9732664,-115.5413119,"XFF5+8F Brawley, CA, USA",3.0,4,1
ChIJ_4U9rTha14ARNRAcZ-u61fU,Del Taco,32.9614109,-115.5489817,"XF62+HC Brawley, CA, USA",4.1,346,1
ChIJ3b-JjlxW14ARDmaNyMBeyGw,Shell,33.037114100000004,-115.6248833,"29PG+R2 Westmorland, CA, USA",4.1,74,2
ChIJRXrEBFxW14ARpiOa8Y9nsdw,McDonald's,32.9789762,-115.5422936,"XFH5+H3 Brawley, CA, USA",3.7,887,1
ChIJH4sMiBNa14ARsWzdgpWr9G4,Subway,32.979373800000005,-115.5481675,"XFH2+PP Brawley, CA, USA",4.2,126,1
ChIJNdkmmEBa14AREnNdmI4RX9s,Starbucks,32.96274599999999,-115.54833,"XF72+3M Brawley, CA, USA",4.3,341,2
ChIJ3WM0JK4j14ARL-TR_TDZCjc,Boardmanville Trading Post,32.99096,-115.025043,"XXRF+9X Glamis, CA, USA",4.9,72,1
ChIJn4gxhaxg14ARV1z-7DBybFA,Applebee's Grill + Bar,32.8159759,-115.570375,"RC8H+9V El Centro, CA, USA",3.8,665,2
ChIJyXnF_V1a14AR4AyRjL-uT5Y,Brownie's Diner,32.9781539,-115.5267828,"XFHF+77 Brawley, CA, USA",4.3,444,2
ChIJr2jD6nVe14ARsEBjsSPKB98,Humble Farmer Brewing- Imperial,32.847077299999995,-115.5695313,"RCWJ+R5 Imperial, CA, USA",4.7,242,2
ChIJgTgvHA6mIIYR8-Hw_kHU-f0,The Court of Two Sisters,29.957535600000003,-90.0652738,"XW5M+2V New Orleans, LA, USA",4.4,3611,3
ChIJs_quaAymIIYRUwRs2-LHWqA,Bourbon House,29.9546021,-90.069147,"XW3J+R8 New Orleans, LA, USA",4.3,3337,3
ChIJfV2h73KmIIYRRDpBV-crpB8,Mother's Restaurant,29.948984600000006,-90.0670016,"WWXM+H5 New Orleans, LA, USA",4.1,9232,2
ChIJ01VeXQymIIYRI6lnasCzx3M,Acme Oyster House,29.9542735,-90.0689651,"XW3J+PC New Orleans, LA, USA",4.5,7359,2
ChIJW3d2Wc2lIIYRu-qs_NaSOkg,Commander's Palace,29.9288071,-90.0842041,"WWH8+G8 New Orleans, LA, USA",4.6,4593,3
ChIJi2AxW3SmIIYRmML7jsbqtb8,Herbsaint,29.947316,-90.07156100000002,"WWWH+W9 New Orleans, LA, USA",4.6,854,3
ChIJFYDeXQymIIYRh1Cion6Ta9I,Dickie Brennan's Steakhouse,29.9542059,-90.06872790000001,"XW3J+MG New Orleans, LA, USA",4.4,1194,4
ChIJMwzPjvWlIIYRGeDgzUA-gCI,Parkway Bakery & Tavern,29.973623,-90.090254,"XWF5+CV New Orleans, LA, USA",4.7,3496,1
ChIJ28cfCwymIIYRmTnBVitvmZ0,Deanie's Seafood Restaurant in the French Quarter,29.9553468,-90.0698063,"XW4J+43 New Orleans, LA, USA",4.3,6488,2
ChIJ-1jGZCSwIIYRUaS-g33kjqM,Subway,30.0061561,-90.15718,"2R4V+F4 Metairie, LA, USA",3.3,11,1
ChIJ_0e-awymIIYRMGebBF_zWeE,Galatoires,29.9549285,-90.06901979999998,"XW3J+X9 New Orleans, LA, USA",4.3,1160,4
ChIJaS5FoBGmIIYRTXOjqm3XxI0,Muriel's Jackson Square,29.95845219999999,-90.0631866,"XW5P+9P New Orleans, LA, USA",4.6,2581,3
ChIJ6Q39Ds6nIIYRVwjVLHTvJNw,The Joint,29.9613336,-90.0355517,"XX67+GQ New Orleans, LA, USA",4.6,2370,2
ChIJDyC9Ig6mIIYRDWmrSR08N54,Pat O'Brien's,29.958200800000004,-90.0652973,"XW5M+7V New Orleans, LA, USA",4.5,7600,2
ChIJWegGCA6mIIYRYAiMKN4T4CM,Antoine's Restaurant,29.9567368,-90.06639240000001,"XW4M+MC New Orleans, LA, USA",4.3,2320,3
ChIJGw2RxnKmIIYRk0cBxtskDck,August,29.9499784,-90.06679220000002,"WWXM+X7 New Orleans, LA, USA",4.6,797,4
ChIJI9sXUnl5oYcRon8SpPZ9Qxk,Subway,38.87067860000001,-99.3183404,"VMCJ+7M Hays, KS, USA",3.8,93,1
ChIJzRLoE8nJo4cRmzu32PrlSWU,Subway,38.8668246,-98.8551499,"V48V+PW Russell, KS, USA",3.7,144,1
ChIJD4asEUyKo4cRit1r4T_vUew,Subway,38.3615083,-98.7764066,"966F+JC Great Bend, KS, USA",4.1,94,1
ChIJ_YczUQF5oYcRKqjSzcP3yjo,Subway,38.9037777,-99.3211704,"WM3H+GG Hays, KS, USA",4.2,28,1
ChIJo38P9YR5oYcRlAHxYajMrVg,Gella's Diner & Lb. Brewing Co.,38.8720844,-99.3295624,"VMCC+R5 Hays, KS, USA",4.6,808,2
ChIJJyvHTr15oYcRT3PbVs04KSM,Gambino's Pizza,38.877533,-99.317528,"VMHJ+2X Hays, KS, USA",4.1,196,2
ChIJI0mU8nYEpIcRuBgZPS_uOiY,Subway,38.1884671,-99.0979294,"5WQ2+9R Larned, KS, USA",4.1,50,1
ChIJT_t4JXN5oYcRgt-SBMRXWrQ,Jimmy John's,38.88517679999999,-99.3154524,"VMPM+3R Hays, KS, USA",4.2,159,1
ChIJe8bGln95oYcR1fk6X1v6-1Y,J D's Country Style Chicken,38.8652778,-99.3194444,"VM8J+46 Hays, KS, USA",4.4,299,1
ChIJSeAPmGx5oYcRn_0nqGT2qbQ,Casey's,38.88496429999999,-99.3081761,"VMMR+XP Hays, KS, USA",4.0,25,1
ChIJb7GgOEaSo4cRcfFvU8YDBME,Dairy Queen Grill & Chill,38.5212425,-98.774254,"G6CG+F7 Hoisington, KS, USA",4.1,211,1
ChIJB_k9PMnJo4cRAW5QUuf4b-o,Pizza Hut,38.8668576,-98.85384859999999,"V48W+PF Russell, KS, USA",3.9,151,1
ChIJ49VlA-vJo4cRIX8oUZCYGik,A&W Restaurant,38.88174620000001,-98.856461,"V4JV+MC Russell, KS, USA",4.3,430,1
ChIJ222ic0KSo4cRMqZ906qykdA,Casey's,38.51244799999999,-98.77704279999999,"G66F+X5 Hoisington, KS, USA",4.3,47,1
ChIJ39R2Fo3Jo4cRBaIXKONEZBo,Waudby's Sports Bar & Grill,38.89259699999999,-98.8595156,"V4VR+25 Russell, KS, USA",4.4,186,2
ChIJ7aDki1OKo4cRKb4SwF5juv8,Subway,38.35919060000001,-98.7864974,"9657+MC Great Bend, KS, USA",4.4,25,1
ChIJHWcfBP-Ko4cR4abmIZAz2pg,Braum's Ice Cream & Burger Restaurant,38.3613889,-98.79472220000001,"9664+H4 Great Bend, KS, USA",4.2,745,1
ChIJ7TlW2gi0r1QRrDQ8pA87T48,Subway,43.66729820000001,-116.6825264,"M888+WX Caldwell, ID, USA",3.8,249,1
ChIJDej0d5-0r1QRc2uWoi2H4fY,Subway,43.6314201,-116.6434249,"J9J4+HJ Caldwell, ID, USA",3.9,162,1
ChIJ0yF87ZlMrlQR1x-CWVcvx1Y,Subway,43.59988189999999,-116.59424579999998,"HCX4+X8 Nampa, ID, USA",3.9,217,1
ChIJ91p5mplMrlQRYMGnQ9Fl7IU,Mongolian BBQ,43.5997637,-116.59508970000002,"HCX3+WX Nampa, ID, USA",4.4,1015,2
ChIJ62ngfSTLr1QRNeJkSf07tR4,The Orchard House Restaurant,43.5879821,-116.79270929999998,"H6Q4+5W Caldwell, ID, USA",4.6,954,2
ChIJGdrpD2xMrlQRHz73iJ64xu4,Brick 29 Bistro,43.57718120000001,-116.5633047,"HCGP+VM Nampa, ID, USA",4.7,1917,2
ChIJWVYD6uyxr1QRrGFpv6v4aGg,Subway,43.7066218,-116.621492,"P94H+JC Middleton, ID, USA",4.1,189,1
ChIJj1XHzPdLrlQRwJTM-gM6mck,Subway,43.56330699999999,-116.5725711,"HC7G+8X Nampa, ID, USA",3.9,178,1
ChIJ5-fUy1dJrlQR9E6vjdQ8Yjg,Little Caesars Pizza,43.55019,-116.571205,"HC2H+3G Nampa, ID, USA",3.7,141,1
ChIJR-NotoHOr1QR5r0J03vdmdM,Idaho Pizza Company,43.6173361,-116.9310197,"J389+WH Homedale, ID, USA",4.2,321,2
ChIJSQzLFQi0r1QRy5i--rlcckI,Pizza Hut,43.6693451,-116.6787215,"M89C+PG Caldwell, ID, USA",3.1,572,1
ChIJ-QND7HC0r1QRxQxI1iGMBFc,Dairy Queen,43.6535125,-116.6728118,"M83G+CV Caldwell, ID, USA",4.0,563,1
ChIJgyCv4bhMrlQR50rrMUYq_g4,Olive Garden Italian Restaurant,43.6108333,-116.5911111,"JC65+8H Nampa, ID, USA",4.4,2462,2
ChIJPSNjrp-0r1QRHXDHjGq6S5Y,Panda Express,43.6325007,-116.64397859999998,"J9M4+2C Caldwell, ID, USA",3.6,566,1
ChIJ5dM7vJhMrlQRB1M0uuklcQ8,Starbucks,43.602111,-116.598764,"JC22+RF Nampa, ID, USA",4.1,366,2
ChIJLR5OcppMrlQRHwOGopqN9pk,Papa Murphy's | Take 'N' Bake Pizza,43.598349000000006,-116.5920474,"HCX5+85 Nampa, ID, USA",4.3,389,1
ChIJIfJUYqFMrlQRWCNd_l4pZck,Red Robin Gourmet Burgers and Brews,43.60466460000001,-116.6050905,"J93V+VX Nampa, ID, USA",4.0,1950,2
ChIJk9pUHh9NrlQRongY7JaFxeA,Subway,43.6120768,-116.55230290000002,"JC6X+R3 Nampa, ID, USA",4.1,115,1
ChIJuTjqnxFv1oYRHklxa4VNmM8,"Guadalajara Grill Fiesta, Tucson's Best Mexican Restaurant",32.2305605,-110.8404372,"65J5+6R Tucson, AZ, USA",3.9,1650,2
ChIJC7ZFsLxo1oYRTn4qLVoG1qI,Buffalo Wild Wings,32.2224984,-110.7886045,"66C6+XH Tucson, AZ, USA",4.0,1290,2
ChIJi_mQCaZdK4cRusYoi1Wj-mE,Subway,32.0508725,-110.7092846,"372R+87 Vail, AZ, USA",3.3,41,1
ChIJdecUF_9u1oYRrg8yo2hwDJo,Pinnacle Peak,32.247630900000004,-110.8531251,"64XW+3P Tucson, AZ, USA",4.4,1916,3
ChIJoZJlR1Jh1oYRbqs9dN-wqWc,Little Caesars Pizza,32.1185059,-110.7977602,"4692+CV Tucson, AZ, USA",3.3,111,1
ChIJ68AdCVVu1oYRDvznSIYX5Yg,Hooters,32.22065909999999,-110.8378404,"65C6+7V Tucson, AZ, USA",4.2,1421,2
ChIJEwiDpkZv1oYRyqHTPSaOKGY,Subway,32.22148849999999,-110.8247933,"65CG+H3 Tucson, AZ, USA",3.9,231,1
ChIJPZxPNi9p1oYRXRfUwgIKTUM,Subway,32.2595204,-110.7981744,"7652+RP Tucson, AZ, USA",4.1,91,1
ChIJFRqY_ahh1oYRNSq4Jzy_Stw,Hotrods Old Vail,32.08096689999999,-110.7689438,"36JJ+9C Tucson, AZ, USA",3.8,752,2
ChIJVysh_-Nu1oYR2c8uot9geJc,Subway,32.2512669,-110.837954,"7526+GR Tucson, AZ, USA",4.3,94,1
ChIJQw6XT2Nv1oYR5LiB0KYwwEg,Subway,32.20559299999999,-110.8432824,"6544+6M Tucson, AZ, USA",3.9,89,1
ChIJP2HNNhxm1oYRWwfWtXrx-Pk,Golden House Chinese Fast Food,32.2074071,-110.7910874,"6645+XH Tucson, AZ, USA",4.4,444,1
ChIJM24IBRxm1oYRMUqe2vgjK3U,Chipotle Mexican Grill,32.2059615,-110.7901435,"6645+9W Tucson, AZ, USA",4.0,781,1
ChIJqRWjWXhl1oYRQBWPVhxOzNo,Subway,32.1907086,-110.8573755,"54RV+72 Tucson, AZ, USA",4.3,285,1
ChIJ411E-6Bv1oYRr-9x58uom4o,Texas Roadhouse,32.219351,-110.858406,"649R+PJ Tucson, AZ, USA",4.5,3904,2
ChIJVf5c1HhcnIcRTrslb_OAABo,Subway,41.4015254,-99.6297597,"C92C+J3 Broken Bow, NE, USA",4.0,53,1
ChIJ95GaFIRbnIcRZvox3pAN7Is,China Garden Restaurant,41.401625,-99.6413333,"C925+JF Broken Bow, NE, USA",3.6,75,2
ChIJGwU_JoRbnIcRYOCvcvXPDXU,Broken Bow Legends Neighborhood Grill,41.40286630000001,-99.6404037,"C935+4R Broken Bow, NE, USA",4.4,158,2
ChIJYXXkg4NbnIcRHjt0d910aSA,Fiesta Brava,41.4003527,-99.64219849999999,"C925+44 Broken Bow, NE, USA",4.5,313,2
ChIJZ0ZWf6NbnIcRSW0fTJHGqK8,Dairy Queen Grill & Chill,41.401356,-99.66159,"C82Q+G9 Broken Bow, NE, USA",4.3,212,1
ChIJ__BUDJlbnIcR-gwsHHYBQcs,Taco John's,41.4010833,-99.664278,"C82P+C7 Broken Bow, NE, USA",3.7,211,1
ChIJG9loFrKQnIcRzenqe-NnqYI,Lazy D Restaurant and Lounge,41.7700462,-99.3799362,"QJCC+22 Taylor, NE, USA",4.4,114,2
ChIJl-lYrH5cnIcR96e4hPwJZ_M,Pizza Hut,41.40204560000001,-99.6281628,"C92C+RP Broken Bow, NE, USA",4.2,163,1
ChIJrVLxuIZbnIcR8gqH8Htq3Ws,Runza Restaurant,41.4020395,-99.6240489,"C92G+R9 Broken Bow, NE, USA",4.4,291,1
ChIJy15wKnlcnIcRpeYt5wbY7Bs,McDonald's,41.402087,-99.62964129999999,"C92C+R4 Broken Bow, NE, USA",3.0,365,1
ChIJfcqsPYRbnIcRm1hhFRZTZ64,City Cafe,41.4022388,-99.6407752,"C925+VM Broken Bow, NE, USA",4.8,119,1
ChIJtWOsFFAjpoARz3tWIO_pRo8,Lone Mountain Station,41.15664760000001,-115.8425181,"5544+MX Elko, NV, USA",4.7,78,2
ChIJa1nh2KuvnFQRKx9SEzJy5Rc,Arrowleaf Bistro,48.4724473,-120.1783528,"FRCC+XM Winthrop, WA, USA",4.5,125,3
ChIJL75e5vydm1QRJscPJhCBHD4,Blueberry Hills Farm,47.9057194,-120.17924440000002,"WR4C+78 Manson, WA, USA",4.6,1058,2
ChIJdaF43PijnFQRFDSlC85Jot4,La Fonda Lopez,48.365426,-120.122151,"9V8H+54 Twisp, WA, USA",4.4,218,2
ChIJrWl8eimOnFQRyyh6peeMS_Q,Subway,48.10026399999999,-119.7878378,"4626+4V Brewster, WA, USA",3.8,11,1
ChIJZSjmqyebm1QRJi2nmopTZBk,Subway,47.84255699999999,-119.9875966,"R2V6+2X Chelan, WA, USA",3.7,64,1
ChIJfQgg1Bqbm1QRPGrQUraANTI,Stormy Mountain Brewing and Local Public House,47.84020839999999,-120.017348,"RXRM+33 Chelan, WA, USA",4.2,520,2
ChIJYfGqZPpgvYARpoTKPG6BKeo,Wong's Chinese Fast Food,38.5246057,-118.6200293,"G9FH+RX Hawthorne, NV, USA",3.9,57,1
ChIJ2YflM4tgvYAREyxIKqH3sfA,Port of Subs,38.53397460000001,-118.6225548,"G9MG+HX Hawthorne, NV, USA",4.1,76,1
ChIJN8fRSIQvdkARsSn51Tlhbn4,Sportsmen's Bar & Grill,38.2555556,-119.2283333,"7Q4C+6M Bridgeport, CA, USA",4.2,181,2
ChIJgf1jIfVgvYAR_mcOG8lNxLo,McDonald's,38.53291039999999,-118.6240675,"G9MG+59 Hawthorne, NV, USA",3.3,1156,1
ChIJW5VXlPdgvYARAZmtBZCV3Uo,Old Nevada Pizza,38.5242871,-118.62481909999998,"G9FG+P3 Hawthorne, NV, USA",4.3,340,2
ChIJAbjKpvdgvYARypjfHKZTYLI,El Capitan Restaurant,38.525202,-118.6238297,"G9GG+3F Hawthorne, NV, USA",3.6,236,2
ChIJ0fyidyuId4gRnnwxTSYJUdM,Subway,37.3015611,-89.5852651,"8C27+JV Cape Girardeau, MO, USA",3.5,46,1
ChIJYVRZUB6Id4gRNF50v6qGFKc,Subway,37.2986133,-89.56552950000003,"7CXM+CQ Cape Girardeau, MO, USA",4.0,107,1
ChIJU8imholzd4gRxGqAMb2s9Mw,Von Jakob Winery & Brewery,37.6025542,-89.324626,"JM3G+24 Alto Pass, IL, USA",3.9,128,1
ChIJjXev-Y2Hd4gRtU88UbZmxeE,Subway,37.3065287,-89.5268411,"8F4F+J7 Cape Girardeau, MO, USA",4.1,127,1
ChIJuUeW2OeLd4gRU2_0vr8pho4,Subway,37.3620937,-89.6346282,"9968+R4 Jackson, MO, USA",4.1,16,1
ChIJDVYRSPERd4gRcvjlH6LnvRM,Subway,37.7262728,-89.2321972,"PQG9+G4 Carbondale, IL, USA",4.0,224,1
ChIJ2xDHvIKMd4gReqBe1cXwM0o,Subway,37.38318969999999,-89.67153909999998,"98MH+79 Jackson, MO, USA",3.8,98,1
ChIJ218a0WJld4gRj8a2pXGvD0k,Subway,37.4648183,-89.22227640000001,"FQ7H+W3 Anna, IL, USA",4.3,137,1
ChIJ48SfkdYTd4gRWB1-5txhnVM,Subway,37.7172316,-89.20343059999998,"PQ8W+VJ Carbondale, IL, USA",3.9,53,1
ChIJV8NYZeaHd4gRpZOEk9JcLBk,Jimmy John's,37.31311289999999,-89.54204999999996,"8F75+65 Cape Girardeau, MO, USA",4.1,203,1
ChIJBSRlCCAJd4gR_HMVZ2yEQ6M,Subway,37.76391720000001,-89.3416554,"QM75+H8 Murphysboro, IL, USA",4.5,135,1
ChIJkylR9UIRd4gR_7YvfGB6hpM,Subway,37.73144630000001,-89.19475440000002,"PRJ4+H3 Carbondale, IL, USA",4.2,75,1
ChIJbzxGXrWNd4gRwu20JV05zM4,Pizza Inn Buffet,37.4283076,-89.6424571,"C9H5+82 Jackson, MO, USA",4.2,469,1
ChIJgUp3jwiId4gRCkMFpYiMDIY,Little Caesars Pizza,37.31126,-89.55178000000002,"8C6X+G7 Cape Girardeau, MO, USA",4.1,504,1
ChIJ5_5Te0MRd4gRYqwCnkOmnd8,Moe's Southwest Grill,37.73367200000001,-89.184184,"PRM8+F8 Carbondale, IL, USA",4.4,607,1
ChIJD-MlkIcRd4gR2178Z9PttSo,New Kahala: Chinese Cuisine,37.71778699999999,-89.20857199999998,"PQ9R+4H Carbondale, IL, USA",4.3,406,2
ChIJ6V_3rAyId4gRroQvyfrCqUA,Papa John's Pizza,37.3169404,-89.554958,"8C8W+Q2 Cape Girardeau, MO, USA",4.4,128,1
ChIJDY1EuocRd4gRTv73dVug6Ds,Pagliai's Pizza,37.7231,-89.216175,"PQFM+6G Carbondale, IL, USA",4.4,542,2
ChIJF9-G_MDpSoYRvnbVVFmBrMk,Subway,34.01085099999999,-95.5013982,"2F6X+8C Hugo, OK, USA",3.9,152,1
ChIJC12YJOu0tIcRiyKUgwiztdw,Subway,34.380480799999994,-96.1310724,"9VJ9+5H Atoka, OK, USA",4.4,144,1
ChIJV6h1qsbQSoYR7d_2FnlGb1w,Subway,34.2295822,-95.6302771,"69H9+RV Antlers, OK, USA",4.3,149,1
ChIJWUIo-ru0tIcRrvWpP1qEC6w,Subway,34.3669088,-96.1410746,"9V85+QH Atoka, OK, USA",4.0,35,1
ChIJCUwrJ_jQSoYRT7tqy9IoWEs,"Simple Simon's Pizza - Antlers, OK (inside Pruett's Foods)",34.2316145,-95.6089044,"69JR+JC Antlers, OK, USA",3.7,6,1
ChIJHZ_2S5YiS4YRpueE3bB-wiU,"Simple Simon's Pizza - Boswell, OK",34.02707540000001,-95.8762974,"24GF+RF Boswell, OK, USA",4.1,40,1
ChIJM97eHcfpSoYRai9HHB9lEE8,Braum's Ice Cream & Burger Restaurant,34.0109206,-95.5056305,"2F6V+9P Hugo, OK, USA",4.2,652,1
ChIJmeJL3pYiS4YRkRXmo23N7F4,Janet’s B.B.Q & Cafe,34.0270719,-95.873328,"24GG+RM Boswell, OK, USA",4.8,105,2
ChIJ99Ui1MvpSoYR7gUKxHTIh-o,Buffalo Grill,34.010675899999995,-95.5147287,"2F6P+74 Hugo, OK, USA",4.6,418,2
ChIJWYgop0BaM4YR5XoPbu1SM0Y,China Garden,33.9976972,-95.4778149,"XGXC+3V Hugo, OK, USA",4.0,75,1
ChIJC12YJOu0tIcRWQexXZbwK_c,Taco Mayo,34.3805164,-96.13103730000002,"9VJ9+6H Atoka, OK, USA",3.7,129,1
ChIJE2F7X7q0tIcRke1Fe-mY9Lo,Moe's Southwest Grill,34.3647222,-96.1405556,"9V75+VQ Atoka, OK, USA",3.9,391,1
ChIJZ_zkre20tIcRSH1ljIlvIrU,Taco Bell,34.37136830000001,-96.1366212,"9VC7+G9 Atoka, OK, USA",3.8,410,1
ChIJ9SrBWb60tIcRlxAkCf4BFts,Chili's Grill & Bar,34.373937899999994,-96.1347643,"9VF8+H3 Atoka, OK, USA",4.0,625,2
ChIJh5YWaeu0tIcRnIFLPwPsJ3Q,K&E Daylight Donuts,34.382553200000004,-96.1299968,"9VMC+22 Atoka, OK, USA",4.5,44,1
ChIJ-Ytkhe60tIcRO8ZdQgQQjx4,Luigi's Italian Restaurant,34.38526679999999,-96.1245923,"9VPG+45 Atoka, OK, USA",4.7,150,2
ChIJGwiG4cPQSoYRBfZuJNZ3ef8,Ables’ Bar-B-Que,34.231278,-95.633268,"69J8+GM Antlers, OK, USA",4.0,221,2
ChIJ9aWptoV7mFQR1L1PU3bQJAE,Subway,46.2709438,-119.1853574,"7RC7+9V Pasco, WA, USA",4.0,161,1
ChIJE9NMFHBwmFQRHASClyn25xE,Subway,46.2558745,-119.3080407,"7M4R+8Q Richland, WA, USA",3.8,13,1
ChIJaRxry6dwmFQRPUViJrv2qPU,Bonefish Grill,46.22676010000001,-119.2492493,"6QG2+P8 Richland, WA, USA",4.2,646,2
ChIJn0_8rYp5mFQR4-vywEzRoyw,Bruchi's,46.2262795,-119.2283393,"6QGC+GM Kennewick, WA, USA",3.9,56,2
ChIJY4zFCVnholQRMZS6e8Fda5c,Traditions Dining,45.6473901,-118.6795246,"J8WC+X5 Pendleton, OR, USA",4.0,205,2
ChIJTe8pVwN5mFQRqLU3EFm_Ns4,Subway,46.2098507,-119.1570017,"6R5V+W5 Kennewick, WA, USA",3.9,168,1
ChIJwZMHVRe5olQRqoZbu8s0Dtg,Little Caesars Pizza,45.84504489999999,-119.2894148,"RPW6+26 Hermiston, OR, USA",4.2,291,1
ChIJlXtCpwR5mFQRZmWXxlpju4E,Little Caesars Pizza,46.20984110000001,-119.1574716,"6R5V+W2 Kennewick, WA, USA",3.9,469,1
ChIJU_HaiEbholQRYCoiEufHjuQ,Little Caesars Pizza,45.66717,-118.80497,"M58W+V2 Pendleton, OR, USA",3.8,85,1
ChIJB18y4KZwmFQRMQdGUil49rs,Sakura Restaurant,46.2291037,-119.2677117,"6PHJ+JW Richland, WA, USA",4.0,355,2
ChIJw4ix37t-mFQRc5Ru4NHIyWM,Little Caesars Pizza,46.2418363,-119.11683899999998,"6VRM+P7 Pasco, WA, USA",4.1,164,1
ChIJTdT9dRa5olQRPnUeyxXJEn4,Subway,45.85012340000001,-119.2873333,"VP27+23 Hermiston, OR, USA",2.7,19,1
ChIJp5ePTLl-mFQRIJzTMKavM4s,Subway,46.2421105,-119.1197676,"6VRJ+R3 Pasco, WA, USA",4.0,209,1
ChIJxSKY_Oh5mFQRySVWBXpgrCI,Subway,46.210314200000006,-119.22249840000002,"6Q6H+42 Kennewick, WA, USA",3.8,163,1
ChIJYcBpNh56mFQRUvF33loJOrE,Olive Garden Italian Restaurant,46.2265148,-119.2321555,"6QG9+J4 Kennewick, WA, USA",4.3,2351,2
ChIJr40Es-K4olQRWWA7U9TS_NA,Subway,45.8346848,-119.2879574,"RPM6+VR Hermiston, OR, USA",4.0,121,1
ChIJK2qWR3r6vIcRB2AP2MIddC8,Subway,38.9382101,-97.21353909999999,"WQQP+7H Abilene, KS, USA",3.9,192,1
ChIJ12STguHFvIcRVgvUVwlLo9k,Subway,38.8267822,-97.594533,"RCG4+P5 Salina, KS, USA",3.7,171,1
ChIJm9ojOp3IvIcRMpYLoa7bvCo,Subway,38.7926372,-97.6135323,"Q9VP+3H Salina, KS, USA",3.5,60,1
ChIJw8K99PzFvIcRd-ZfCvZbcZc,Little Caesars Pizza,38.8273438,-97.60257,"R9GW+WX Salina, KS, USA",4.2,252,1
ChIJ95foYvV7u4cR9KtyrJ3yHMg,Subway,38.3483549,-97.1983776,"8RX2+8J Hillsboro, KS, USA",4.0,41,1
ChIJCWCOszbPvIcRE1rJJYrCl4k,Subway,38.82757220000001,-97.6383979,"R9H6+2J Salina, KS, USA",3.9,189,1
ChIJ3dSWUcWxvIcRIMO2J5TS-tM,Subway,38.58038919999999,-97.6662092,"H8JM+5G Lindsborg, KS, USA",3.2,79,1
ChIJxcp77ofPvIcRiG7bpyKA__g,Subway,38.879226300000006,-97.6118093,"V9HQ+M7 Salina, KS, USA",3.6,69,1
ChIJad2le_bFvIcRKDR5KaqDygI,Martinelli's Little Italy,38.838443,-97.609424,"R9QR+96 Salina, KS, USA",4.6,1728,2
ChIJ43qBmPXFvIcRZ2C3OdoC50U,The Cozy Inn,38.841,-97.6101528,"R9RQ+CW Salina, KS, USA",4.6,1668,1
ChIJuaw2CRLGvIcRwOb_xCx_7Cg,Papa John's Pizza,38.81352589999999,-97.5948002,"RC74+C3 Salina, KS, USA",4.1,101,1
ChIJ313NzBPGvIcRtHh-nUe6z2Y,Jimmy John's,38.8136726,-97.5934214,"RC74+FJ Salina, KS, USA",3.9,177,1
ChIJ3zEWJwLGvIcRsmBP60ewl2U,Pizza Hut,38.81791930000001,-97.609596,"R99R+55 Salina, KS, USA",4.0,152,1
ChIJ530q-xPGvIcRgYrLEt0Ea_A,Wendy's,38.8092732,-97.5946909,"RC54+P4 Salina, KS, USA",4.2,567,1
ChIJqfka93N8u4cRP7qo2RBogVU,Panda Kitchen,38.3530945,-97.2052545,"9Q3V+6V Hillsboro, KS, USA",4.2,102,2
ChIJeeyS_fV7u4cR6slCA8utJyY,Wendy's,38.3483079,-97.1943793,"8RX4+86 Hillsboro, KS, USA",3.8,229,1
ChIJ3T2XZpdlvIcRrpTmqEMihfk,Subway,38.6676111,-96.9386552,"M396+2G Herington, KS, USA",4.3,131,1
ChIJaXHDy_LwvIcRd-9JY65Z9cI,Hitching Post Restaurant,38.9107574,-97.2133839,"WQ6P+8J Abilene, KS, USA",4.0,229,1
ChIJg0YbE5lXu4cRtjnGehnD8fQ,Subway,38.3699944,-97.6294887,"999C+X6 McPherson, KS, USA",4.0,120,1
ChIJ--47hKtNv4cRdvvx6yN-vVA,Subway,38.58129399999999,-95.2643511,"HPJP+G7 Ottawa, KS, USA",4.1,71,1
ChIJHUDsMDNMv4cRhfI06BB2U2U,Subway,38.6045849,-95.2689375,"JP3J+RC Ottawa, KS, USA",4.2,168,1
ChIJlZfNfKRTx4cRjVP73NXhuwQ,La Hacienda,38.4992626,-94.9500972,"F2XX+PX Osawatomie, KS, USA",4.2,186,2
ChIJubJqO2C7uIcR91n6eh6jvDo,Subway,38.2847345,-95.24964659999999,"7QM2+V4 Garnett, KS, USA",4.1,74,1
ChIJBexicHW6wIcR5yJXBwuz93o,Subway,38.72196870000001,-94.8323984,"P5C9+Q2 Spring Hill, KS, USA",3.5,56,1
ChIJRSlpfpbLwIcRZ9ertEFwvfo,Subway,38.62036980000001,-94.6610463,"J8CQ+4H Louisburg, KS, USA",3.7,68,1
ChIJA7x-uq28wIcRZtqlc1yFY0o,Subway,38.8107451,-94.8900948,"R465+7X Gardner, KS, USA",3.3,128,1
ChIJy4eebapNv4cRGg58gOaamBg,Applebee's Grill + Bar,38.5774869,-95.2644851,"HPGP+X6 Ottawa, KS, USA",3.8,784,2
ChIJyZm58-eywIcR0eDtYKm52aE,Subway,38.5741023,-94.8615802,"H4FQ+J9 Paola, KS, USA",3.5,93,1
ChIJr6EvOWC7uIcR2J4dlzQomgM,Sonic Drive-In,38.2847639,-95.2487692,"7QM2+WF Garnett, KS, USA",4.0,341,1
ChIJv1SRwFSyuIcRI66DTbJWLjg,Brand N Iron Bar & Grill,38.4889176,-95.2662445,"FPQM+HG Princeton, KS, USA",4.7,314,2
ChIJMUcm-5KywIcRH9UtsmGnPoE,Chen's Buffet,38.58159129999999,-94.8739543,"H4JG+JC Paola, KS, USA",4.4,342,1
ChIJFxtcZN6ywIcR4WDKX-qbgi0,Burger King,38.5716245,-94.8563942,"H4CV+JC Paola, KS, USA",3.1,136,1
ChIJnyyBVktMv4cRvR6meSd4Y8c,Sonic Drive-In,38.59270739999999,-95.2683825,"HPVJ+3J Ottawa, KS, USA",3.6,708,1
ChIJUaNlrixMv4cRU0adrexNL4I,El Mezcal,38.6127322,-95.2689391,"JP7J+3C Ottawa, KS, USA",4.2,707,2
ChIJEeVjIpaywIcRyn6VWDKu9Os,Casa Grande Mexican Restaurant,38.5731387,-94.8794982,"H4FC+76 Paola, KS, USA",4.1,254,2
ChIJkVZu1nJBR1MRm_3R2eJnygw,Wrangler Bar & Cafe,47.02670850000001,-108.799332,"26G2+M7 Grass Range, MT, USA",4.7,82,1
ChIJoQB-3XmZR1MRah71lv80kuk,Busy Bee Cafe,46.4419873,-108.5474781,"CFR3+Q2 Roundup, MT, USA",4.3,229,2
ChIJU-Bt3niZR1MRnH05tlAXydw,Grand Bar and Restaurant,46.441172,-108.542351,"CFR5+F3 Roundup, MT, USA",4.3,191,2
ChIJOQbK2tD4HIcR6utRgxdUaRE,Sadie's Frontier Restaurant,34.47289129999999,-104.2484307,"FQF2+5J Fort Sumner, NM, USA",4.0,103,2
ChIJI5M9qNr4HIcRzwcTpnVPocE,Rodeo Grill,34.4701639,-104.2411498,"FQC5+3G Fort Sumner, NM, USA",4.3,162,1
ChIJS4db-Sn5HIcRrxtWbG1ZHJQ,Dariland,34.4682125,-104.2331573,"FQ98+7P Fort Sumner, NM, USA",4.3,204,1
ChIJZwsOVYX5HIcRm_jgjSav6DI,The Daily Grind Restaurant and Coffee Bar,34.4672318,-104.2307198,"FQ89+VP Fort Sumner, NM, USA",4.3,38,2
ChIJ3crHG-JnaYgRqvhz7yaa4PA,Hubers Joe Family Farm & Restaurant,38.4144886,-85.915708,"C37M+QP Borden, IN, USA",4.4,1236,2
ChIJx8d1auC-a4gRlcNBJs66dL0,Subway,38.95772939999999,-85.86906579999999,"X45J+39 Seymour, IN, USA",4.0,264,1
ChIJGa_vRuC-a4gRewB3J0FHRBU,Little Caesars Pizza,38.95801999999999,-85.870995,"X45H+6J Seymour, IN, USA",3.8,442,1
ChIJp-PflG3aa4gRodO5lq7M0kw,Subway,38.685874,-85.78342289999998,"M6P8+8J Scottsburg, IN, USA",3.6,61,1
ChIJO3jAh7G_a4gRI8gNZYurdmQ,Subway,38.9525842,-85.9017338,"X33X+28 Seymour, IN, USA",3.9,108,1
ChIJWyvtIqg7aogRTU6x9d7Mzws,Subway,38.772276,-85.386808,"QJC7+W7 Madison, IN, USA",4.0,217,1
ChIJZVedekbaa4gRtgYQ8qRhcok,Subway,38.6877392,-85.7955479,"M6Q3+3Q Scottsburg, IN, USA",3.4,45,1
ChIJNe5vcQuza4gRHDyrfgSz10E,Subway,39.01299570000001,-85.6397605,"2976+53 North Vernon, IN, USA",4.4,163,1
ChIJIw_H8qpkaYgRnh2bIuqQq6M,Subway,38.49083710000001,-85.7699821,"F6RJ+82 Memphis, IN, USA",3.4,112,1
ChIJd7s8FHvEa4gRnX_-xKmk-8k,Subway,38.79529,-85.84005959999998,"Q5W5+4X Crothersville, IN, USA",4.3,115,1
ChIJn9LIriC_a4gRBgxSaUyBQ6g,Subway,38.95546039999999,-85.86442590000001,"X44P+56 Seymour, IN, USA",3.7,54,1
ChIJL0Pss2J2aYgRP1qG0eHlrgs,Captain's Quarters Riverside Grille,38.33138049999999,-85.64266479999998,"89J4+HW Prospect, KY, USA",4.3,1894,2
ChIJB8E_GVjsa4gRlBfbvDjiLak,Subway,38.87789130000001,-86.04214449999998,"VXH5+54 Brownstown, IN, USA",3.8,75,1
ChIJ_ZGU3lH9a4gRhDZXiF57zbc,Subway,38.6020884,-86.10143099999998,"JV2X+RC Salem, IN, USA",3.7,92,1
ChIJ3dEXBZpdaYgRj1fjTHZ3yVg,Subway,38.46658970000001,-85.94519969999996,"F383+JW Borden, IN, USA",4.1,101,1
ChIJ5Y4bx_8gaogR2Ha-z4-NKSg,Subway,38.5947152,-85.31697740000001,"HMVM+V6 Bedford, KY, USA",3.9,116,1
ChIJOZa9MDCaaYgRMTIm9Pmjb9M,Subway,38.3292414,-85.4688182,"8GHJ+MF Crestwood, KY, USA",3.7,131,1
ChIJgRpx-wdyaYgRPe7AxX4ARE0,Texas Roadhouse,38.31494,-85.76456999999998,"867P+X5 Clarksville, IN, USA",4.5,2841,2
ChIJy68tRr21jocRC2kiSnalO3Y,Minervas Restaurant - Sioux Falls,43.54447029999999,-96.7271207,"G7VF+Q5 Sioux Falls, SD, USA",4.7,1242,3
ChIJuUD9ESa1jocRlJdCk3qfkDk,Subway,43.58337750000001,-96.7107478,"H7MQ+9P Sioux Falls, SD, USA",3.6,41,1
ChIJexTcJArKjocRTc3jofLMJeE,Grille 26,43.5296635,-96.7505284,"G6HX+VQ Sioux Falls, SD, USA",4.5,891,2
ChIJz9CcCK61jocR61OnygNK-xU,Subway,43.54705420000001,-96.7121777,"G7WQ+R4 Sioux Falls, SD, USA",4.1,138,1
ChIJUdIGQ4jJjocRY-hWcBRQUDI,Texas Roadhouse,43.509644,-96.780815,"G659+VM Sioux Falls, SD, USA",4.5,3118,2
ChIJ7-JjQgq2jocRsMqXrGnSa9w,Little Caesars Pizza,43.5152524,-96.73180699999999,"G789+47 Sioux Falls, SD, USA",4.1,407,1
ChIJM50DJletjocRBm73jk4jcdA,Subway,43.5961461,-96.5737693,"HCWG+FF Brandon, SD, USA",4.2,109,1
ChIJfxEc-9lKiYcRWepl5PaZFPY,Subway,43.6040283,-96.7121312,"J73Q+J4 Sioux Falls, SD, USA",3.9,173,1
ChIJC8xXA7_3i4cRq_XFe04z6RQ,Subway,43.64207830000001,-96.2127227,"JQRP+RW Luverne, MN, USA",3.8,114,1
ChIJT46gnQnci4cRn4eDt7MCze8,Subway,43.9955119,-96.307816,"XMWR+6V Pipestone, MN, USA",4.0,103,1
ChIJEeuoowW0jocRnEUGiU4wQ5M,Subway,43.5280699,-96.67050890000002,"G8HH+6Q Sioux Falls, SD, USA",3.9,90,1
ChIJZYb1ib_KjocR2peaQTPfqU4,Subway,43.5869657,-96.7786215,"H6PC+QH Sioux Falls, SD, USA",3.8,121,1
ChIJkcqB94uzjocRLXzgSo-5uLA,Subway,43.5411423,-96.6585936,"G8RR+FH Sioux Falls, SD, USA",3.4,24,1
ChIJZZp7RttviYcR-_Y-zcuM53o,Subway,44.0480214,-96.6069392,"29XV+66 Flandreau, SD, USA",3.6,67,1
ChIJT8ZSaGXKjocRQGHqeVEk66A,Subway,43.5442079,-96.7626564,"G6VP+MW Sioux Falls, SD, USA",4.2,220,1
ChIJNSHpix3KjocRr9V0muVamz4,Subway,43.5139912,-96.7606134,"G67Q+HQ Sioux Falls, SD, USA",4.0,122,1
ChIJLbuwLSDKjocRtGHwkOthQJo,Subway,43.51626599999999,-96.7728934,"G68G+GR Sioux Falls, SD, USA",3.0,27,1
ChIJ0T2NYDmRy4kRFelAmzl8isQ,Auntie Anne's,40.4691277,-78.4116483,"FH9Q+M8 Altoona, PA, USA",3.9,16,1
ChIJw69IdG6Ry4kRtpf2ONrpyoM,Olive Garden Italian Restaurant,40.48342090000001,-78.40040859999998,"FHMX+9R Altoona, PA, USA",4.4,2152,2
ChIJleOW6ysOy4kRE_8HhABYG_A,Mandarin Express,40.2947724,-78.8338163,"75V8+WF Johnstown, PA, USA",4.0,46,1
ChIJQzP9czSRy4kRRU4sVzYlDrI,Outback Steakhouse,40.45952800000001,-78.40991240000002,"FH5R+R2 Altoona, PA, USA",4.2,1213,2
ChIJq5Rc4x2Oy4kRBdpXGPHOL80,Subway,40.53584160000001,-78.39956269999998,"GJP2+85 Altoona, PA, USA",4.1,81,1
ChIJK4A3M_qRy4kRAUwvnukOKk8,Little Caesars Pizza,40.52671,-78.39067,"GJG5+MP Altoona, PA, USA",4.1,113,1
ChIJUzEXBXGRy4kRC973qtkwCwo,Papa John's Pizza,40.4878643,-78.3995561,"FJQ2+45 Altoona, PA, USA",4.2,130,1
ChIJA48xYxt0y4kRgyn0E6AnSj4,Subway,40.4828898,-78.7346621,"F7M8+54 Ebensburg, PA, USA",3.9,100,1
ChIJ1dS0MEgRy4kRXLEEWqRjEog,Subway,40.32574520000001,-78.91963929999999,"83GJ+74 Johnstown, PA, USA",4.2,106,1
ChIJud6o5_Vzy4kRlZIz4v18US4,Subway,40.4753949,-78.75034029999998,"F6GX+5V Ebensburg, PA, USA",2.4,12,1
ChIJMdtfwyGUy4kRQer3k5zKj4Y,Subway,40.431963,-78.380775,"CJJ9+QM Hollidaysburg, PA, USA",3.7,42,1
ChIJ2YaotJeey4kRpYfLXjK_Yyw,Subway,40.46108039999999,-78.59113099999998,"FC65+CG Cresson, PA, USA",3.8,27,1
ChIJEb9EqDqRy4kRsKiw35Ml0HA,Subway,40.4665939,-78.4179137,"FH8J+JR Altoona, PA, USA",4.2,79,1
ChIJr0FmQeWWy4kRcN5V4xpUHbs,Subway,40.42724129999999,-78.4216217,"CHGH+V9 Duncansville, PA, USA",4.5,42,1
ChIJZ-oVN1MRy4kRArgYb12giQQ,Subway,40.3397219,-78.92800489999998,"83QC+VQ Johnstown, PA, USA",4.1,116,1
ChIJsbdogukWy4kRLSiF1D1PNkQ,Subway,40.3211693,-78.9557883,"82CV+FM Johnstown, PA, USA",4.1,86,1
ChIJoQZE44X1y4kRYfGH2PfH0Jo,Subway,40.67376410000001,-78.23651690000001,"MQF7+G9 Tyrone, PA, USA",4.0,78,1
ChIJC6V63Xi9y4kRC_5GZ-JsLaI,Subway,40.37015299999999,-78.43239890000002,"9HC9+32 Duncansville, PA, USA",3.9,47,1
ChIJMxmE2Ba_y4kR5JQZMPoarQY,Subway,40.31083,-78.3243138,"8M6G+87 Martinsburg, PA, USA",4.6,65,1
ChIJ8yu4-7AKy4kRh9HxPvqMooo,Subway,40.3933078,-78.6713929,"98VH+8C Portage, PA, USA",3.8,44,1
ChIJq6qqquoKuFQRag-DZ62dzoA,Waterin' Hole Tavern Inc,43.3552829,-121.0539784,"9W4W+4C Fort Rock, OR, USA",4.6,120,1
ChIJZ4gh6jB8XVMRgbZaAwj4xik,Hungry Bear Steak House,47.47795,-113.6758806,"F8HF+5J Condon, MT, USA",4.2,109,2
ChIJSRxStKYLXVMR5tQBrQNQ5sU,Filling Station,47.1778564,-113.4837494,"5GH8+4G Seeley Lake, MT, USA",4.0,271,1
ChIJVxMmiKQLXVMRrwx8hg3Skio,Hot Stuff Pizza,47.1776694,-113.4829328,"5GH8+3R Seeley Lake, MT, USA",3.6,7,1
ChIJFfg4zfV0XVMRwKy-Fzz-fxE,Lindey's Prime Steak House,47.17434779999999,-113.4794154,"5GFC+P6 Seeley Lake, MT, USA",4.6,210,2
ChIJJyfJgrgLXVMRgOxx49JbrZY,Chicken Coop Lounge,47.1725921,-113.4776685,"5GFC+2W Seeley Lake, MT, USA",4.2,211,1
ChIJUcbwkcD6SIcRa87wehVx0LQ,Ray's Tavern,38.9950562,-110.1648639,"XRWP+23 Green River, UT, USA",4.6,1174,1
ChIJyZOFUMD6SIcRtb_-XwH9p8I,Subway,38.994329,-110.183666,"XRV8+PG Green River, UT, USA",3.9,354,1
ChIJQ9wQTZz6SIcRIj9ENQjF7qI,Arby's,38.99508459999999,-110.18523,"XRW7+2W Green River, UT, USA",3.8,645,1
ChIJPf719Zj6SIcR3b5h6lpg_4A,Tamarisk Restaurant,38.9930999,-110.1420312,"XVV5+65 Green River, UT, USA",4.4,1886,2
ChIJx9Djc8D6SIcRg4vEXzR64Jw,La Veracruzana,38.99527779999999,-110.1644444,"XRWP+46 Green River, UT, USA",4.1,192,2
ChIJeaN4iZj6SIcRZhw98neeKFE,West Winds Restaurant,38.9956121,-110.1495561,"XVW2+65 Green River, UT, USA",3.9,635,2
ChIJgaMTv7_6SIcRP9YhB6jaofA,Green River Coffee Co,38.9958029,-110.1618862,"XRWQ+86 Green River, UT, USA",4.2,325,2
ChIJRWh0Fb76SIcR3g3KKqGjZrI,Tacos La Pasadita,38.9958433,-110.1595285,"XRWR+85 Green River, UT, USA",4.6,807,1
ChIJPf719Zj6SIcR6usuayKNWcw,Blimpie America's Sub Shop,38.9948988,-110.1529982,"XRVW+XR Green River, UT, USA",4.0,55,1
ChIJv1DlfKQsDogRhm8x60TVJyo,Fairmont Chicago - Millennium Park,41.886065,-87.62088320000002,"V9PH+CJ Chicago, IL, USA",4.4,2086,3
ChIJuTHCJVPTD4gR_-KiOJ4h5Uc,Giordano's,41.8958395,-87.62566989999998,"V9WF+8P Chicago, IL, USA",4.4,8515,2
ChIJ25jYKrIsDogR13tC4wGGODg,Frontera Grill,41.89052059999999,-87.63084690000002,"V9R9+6M Chicago, IL, USA",4.4,2095,2
ChIJl8NTEawsDogRwXH-IVDyH2A,The Purple Pig Restaurant,41.890739,-87.6245691,"V9RG+75 Chicago, IL, USA",4.6,4156,2
ChIJReajl7EsDogRe-JWhrT51uw,Siena Tavern,41.88907469999999,-87.62988229999998,"V9QC+J2 Chicago, IL, USA",4.5,1936,3
ChIJ-UsJsFTTD4gR9wNj_lK4NEQ,Gino's East,41.89588610000001,-87.6230528,"V9WG+9Q Chicago, IL, USA",4.4,4932,2
ChIJiX_qhK0sDogRT9cIkF9qGmw,Weber Grill Restaurant,41.89206310000001,-87.62786009999998,"V9RC+RV Chicago, IL, USA",4.3,2449,2
ChIJ-ZpEcxu2D4gRE7Lg1mQZjds,Giordano's,41.9910769,-87.86130539999998,"X4RQ+CF Rosemont, IL, USA",4.5,4314,2
ChIJVzr2yrMsDogRNWrUba0n1AY,Maggiano's Little Italy,41.89149390000001,-87.6313416,"V9R9+HF Chicago, IL, USA",4.5,2171,2
ChIJNUoDqLYsDogRG8jygr_J23U,Lou Malnati's Pizzeria,41.89034159999999,-87.63371740000002,"V9R8+4G Chicago, IL, USA",4.5,8220,2
ChIJqfIkY60sDogRMP2otSWdKJA,Quartino Ristorante,41.8935763,-87.6284713,"V9VC+CJ Chicago, IL, USA",4.5,4309,2
ChIJr7S1560sDogRdLKYXw1TBA4,Star of Siam,41.8906434,-87.6274651,"V9RF+72 Chicago, IL, USA",4.2,1325,1
ChIJiaf79JksDogRmL01RIXakTM,Lou Malnati's Pizzeria,41.87156110000001,-87.62728609999998,"V9CF+J3 Chicago, IL, USA",4.5,6135,2
ChIJQ3EcBsJVYYYRPbDGm1taud4,Subway,26.9001286,-99.26518809999999,"WP2M+3W Zapata, TX, USA",4.4,74,1
ChIJyyvDv2CqZoYRpJjjbIwm3PY,Dairy Queen,26.896061100000004,-99.26442779999999,"VPWP+C6 Zapata, TX, USA",4.2,228,1
ChIJldh6VdRVYYYR5y9h-X7VEqM,Little Caesars Pizza,26.911668,-99.27572099999999,"WP6F+MP Zapata, TX, USA",4.2,109,1
ChIJoRi1PdFVYYYRFP4TYR37poM,Z Wings Grill & Bar,26.9080574,-99.2725484,"WP5G+6X Zapata, TX, USA",4.5,151,2
ChIJO5DP0vj-Y4YRAlZKd6FdBLA,Circle K,26.9070212,-99.2707244,"WP4H+RP Zapata, TX, USA",2.7,3,1
ChIJo7cZr8NVYYYRlrsUwvq_m28,Church's Chicken,26.8959081,-99.2642723,"VPWP+97 Zapata, TX, USA",3.7,82,1
ChIJJ_lqs348YYYRUOftGEmfD-o,7-Eleven,27.363421,-99.4610779,"9G7Q+9H Laredo, TX, USA",3.0,6,1
ChIJX7ZzG9VVYYYRbH8vf5cdKcw,El Paraiso,26.9131297,-99.2769883,"WP7F+76 Zapata, TX, USA",4.4,332,2
ChIJRfg8SMJVYYYRSfXlZcQUR-A,McDonald's,26.8941084,-99.2638068,"VPVP+JF Zapata, TX, USA",3.9,371,1
ChIJ8QGnI9VVYYYResSI46c7kl8,Mariscos El Jarocho,26.9176247,-99.280205,"WP99+2W Zapata, TX, USA",4.5,180,2
ChIJi1hxf8NVYYYRLiuOWMP8A7A,El Rincon De Los Angeles,26.91209569999999,-99.2749266,"WP6G+R2 Zapata, TX, USA",4.4,254,2
ChIJA9_kvenQb4cRlskHlXAJxtA,Subway,41.2359273,-103.6619518,"68PQ+96 Kimball, NE, USA",3.9,86,1
ChIJ09KqL0iwb4cR4LKef7wBCwg,The Knotty Pine Saloon,41.1790981,-104.0761297,"5WHF+JG Pine Bluffs, WY, USA",4.6,114,1
ChIJByUv5Emwb4cRE5jEzN77bfM,A&W Restaurant,41.1771795,-104.0763094,"5WGF+VF Pine Bluffs, WY, USA",4.2,388,1
ChIJkc671-vQb4cRKzCSbbcokyk,Beer & Loathing,41.2368,-103.663203,"68PP+PP Kimball, NE, USA",4.6,164,2
ChIJEe90wUmwb4cR-AnYvqtCCoU,Subway,41.17689229999999,-104.0753545,"5WGF+QV Pine Bluffs, WY, USA",4.1,68,1
ChIJBzBCEOHQb4cRIRA9r4U31Xc,The Diner,41.218768,-103.66463,"689P+G4 Kimball, NE, USA",4.4,417,1
ChIJj1hd5OvQb4cR-tZW3gRfKKk,Pizza Hut,41.2358929,-103.6641661,"68PP+98 Kimball, NE, USA",3.6,178,1
ChIJBeui_axKZkARWuEsd0wz2K0,Windbreak bar and grill,41.2291277,-103.6164806,"69HM+MC Kimball, NE, USA",4.5,113,2
ChIJB57bNl22O4cRqjRlg5aUL7M,Subway,36.76632969999999,-108.6975565,"Q882+GX Shiprock, NM, USA",4.5,76,1
ChIJtYiT5GE1OocR4RL6iA8D9PI,Domino's Pizza,36.7842637,-108.67587720000002,"Q8MF+PJ Shiprock, NM, USA",3.9,90,1
ChIJx_hNRXKmO4cRMl5J0lQB1vA,Little Caesars Pizza,36.77648660000001,-108.6992405,"Q8G2+H8 Shiprock, NM, USA",3.9,52,1
ChIJdy4SF31fN4cRDaOKbLa2vbg,Comb Ridge Eat and Drink,37.281572,-109.570828,"7CJH+JM Bluff, UT, USA",4.7,346,2
ChIJD3bbNl22O4cRWCHPXt8FpSs,Sonic Drive-In,36.7752786,-108.6977082,"Q8G2+4W Shiprock, NM, USA",3.6,433,1
ChIJFTW0sGO2O4cRWHGq6Maz3nQ,McDonald's,36.7763266,-108.69624109999998,"Q8G3+GG Shiprock, NM, USA",3.5,697,1
ChIJD3bbNl22O4cRr6TgS9ub02w,Taco Bell,36.77640419999999,-108.6973304,"Q8G3+H3 Shiprock, NM, USA",3.9,310,1
ChIJD3bbNl22O4cR09bhzpDFdvA,That's A Burger,36.779244,-108.6962061,"Q8H3+MG Shiprock, NM, USA",4.1,259,1
ChIJOQf0wWO2O4cRtnKwX6m0Qjs,KFC,36.778227,-108.695864,"Q8H3+7M Shiprock, NM, USA",3.9,399,1
ChIJD3bbNl22O4cRetg7fxsOImI,Bamboo House Restaurant,36.7777662,-108.6960581,"Q8H3+4H Shiprock, NM, USA",3.9,165,2
ChIJve8FuDM5QYcRU4iBt5A4toQ,Subway,39.5525648,-107.7775239,"H63C+2X Rifle, CO, USA",3.4,90,1
ChIJhRqfEFXLRocRYz_n2kYyE-k,Subway,39.4548664,-108.0501548,"FW3X+WW Parachute, CO, USA",3.8,95,1
ChIJSx9sDjo5QYcR5JzftUZfHnI,Subway,39.5221467,-107.7760625,"G6CF+VH Rifle, CO, USA",3.9,136,1
ChIJDWyULyA5QYcRddz6BGwsTvM,Sammy's Rocky Mountain Steakhouse,39.53285950000001,-107.7867499,"G6M7+48 Rifle, CO, USA",4.1,224,2
ChIJIemQR8Y4QYcRnZD29Lw2iGo,Kum & Go,39.55307379999999,-107.77678799999998,"H63F+67 Rifle, CO, USA",3.5,17,2
ChIJmdxMrMw-QYcRPOCbVvzTjG8,Little Caesars Pizza,39.523038,-107.769648,"G6FJ+64 Rifle, CO, USA",4.0,107,1
ChIJL0HhAiE5QYcRHjmknz67woc,Dickey's Barbecue Pit,39.532156,-107.783842,"G6J8+VF Rifle, CO, USA",4.4,333,2
ChIJX8K8PiE5QYcRem6C218c3gQ,Shooters Grill,39.5317028,-107.782684,"G6J8+MW Rifle, CO, USA",4.1,1086,2
ChIJ2X02QCE5QYcRlkYwyZsefCM,Whistle Pig Coffee Stop & Cafe,39.5314515,-107.78274740000002,"G6J8+HW Rifle, CO, USA",4.6,213,1
ChIJCzd2B1XLRocRPYFlSvw8BN8,Hong's Garden,39.454705,-108.050967,"FW3X+VJ Parachute, CO, USA",4.1,223,2
ChIJO6-jAlXLRocRmhedfJ77LIQ,El Tapatio,39.45502800000001,-108.05043,"FW4X+2R Parachute, CO, USA",4.4,418,2
ChIJDc9Nnqo0QYcRc8hD9m5dXBY,Shell,39.4535151,-108.0462717,"FX33+CF Parachute, CO, USA",4.0,4,2
ChIJw4i_ODo5QYcRr4maGNx4lmU,Kum & Go,39.5222049,-107.7775007,"G6CC+VX Rifle, CO, USA",3.7,25,2
ChIJ_2DuXjE5QYcRq-kLWmS36PI,Tequilas Family Restaurant Rifle,39.5236774,-107.7699726,"G6FJ+F2 Rifle, CO, USA",4.2,366,2
ChIJQReFH2p9MIYRfpjI6A9etlo,Subway,31.749374100000004,-93.0827939,"PWX8+PV Natchitoches, LA, USA",3.5,122,1
ChIJF9zE_BAKOoYRW0YcimPECV0,Subway,31.5657048,-93.4877128,"HG86+7W Many, LA, USA",3.9,71,1
ChIJDU9XfkF9MIYRz-j-AzJd2TE,Little Caesars Pizza,31.754318,-93.082565,"QW38+PX Natchitoches, LA, USA",4.0,106,1
ChIJdWmAuCJ9MIYRbbUrPGgvGQQ,Subway,31.7506458,-93.0661982,"QW2M+7G Natchitoches, LA, USA",3.7,46,1
ChIJrTNYslp9MIYRZRd7bMeErJI,Lasyone's Meat Pie Restaurant,31.7614605,-93.08805060000002,"QW66+HQ Natchitoches, LA, USA",4.5,702,2
ChIJl4HSZDCjOoYRO_DL_Md4bYk,Mariner's Restaurant,31.765423,-93.110244,"QV8Q+5W Natchitoches, LA, USA",4.3,384,2
ChIJD4XRGUV9MIYRWWhGiBR_x1o,The Landing Restaurant “The Loft @ 530”,31.7600765,-93.0863647,"QW67+2F Natchitoches, LA, USA",3.8,316,2
ChIJfbWJ9CJ9MIYRfR9tVxmHWQQ,Chili's Grill & Bar,31.753119800000004,-93.06580679999999,"QW3M+6M Natchitoches, LA, USA",4.1,673,2
ChIJjfJvGvgKOoYRNRwNq6Y7oTw,Pizza Hut,31.5567779,-93.4724502,"HG4H+P2 Many, LA, USA",4.2,265,1
ChIJj4Wmf2kKOoYR-ZWsID9-6Ss,El Patio,31.5663265,-93.4899734,"HG86+G2 Many, LA, USA",4.1,397,2
ChIJR5vFwCJ9MIYR581K6rcZ5Xg,Lucky Village Chinese Buffet,31.7519251,-93.0644586,"QW2P+Q6 Natchitoches, LA, USA",4.0,354,1
ChIJdx3jcF99MIYR4aIAg9moaxE,Smoothie King,31.753979,-93.09688,"QW33+H6 Natchitoches, LA, USA",4.3,63,2
ChIJ0dopz2GGMIYR1VI-Qj1mhvU,Subway,31.7271678,-93.16097059999998,"PRGQ+VJ Natchitoches, LA, USA",4.2,150,1
ChIJl0lZbJWHMIYRXg3yy-r4yP4,Peggy's Homemade Pizza,31.7481942,-93.1174741,"PVXM+72 Natchitoches, LA, USA",4.7,176,2
ChIJKR_zYPKHMIYR-249uK7Pm10,Sonic Drive-In,31.7532674,-93.1065712,"QV3V+89 Natchitoches, LA, USA",3.7,527,1
ChIJDWuim2kKOoYRbrbRfOZVc5g,Country Boy Restaurant,31.5613778,-93.4744324,"HG6G+H6 Many, LA, USA",4.5,243,1
ChIJb1CAwJ-y0FIRn1vhZytrJT4,Subway,46.8616217,-99.9163719,"V36M+JF Steele, ND, USA",3.1,16,1
ChIJAzpX3Z-y0FIRfdPhi2ysOmQ,Shell,46.86175269999999,-99.9160312,"V36M+PH Steele, ND, USA",2.1,10,2
ChIJT1CAwJ-y0FIROiYao0KcToA,Caribou Coffee,46.8613253,-99.9170562,"V36M+G5 Steele, ND, USA",4.1,27,2
ChIJx8f6Nqla11IRw0IBebyg6mc,TNT Tavern,46.84419860000001,-100.1412472,"RVV5+MG Driscoll, ND, USA",4.8,51,1
ChIJwUBwWoyw0FIRJfwC8saZqY0,Lakeside Bar & Grill,46.8286214,-99.75620409999999,"R6HV+CG Dawson, ND, USA",4.7,72,2
ChIJIURXOROP0FIRzXPgh34vpzg,Medina Cafe,46.8939743,-99.301567,"VMVX+H9 Medina, ND, USA",4.6,81,1
ChIJc46b4Qasb4YRtxbiBnuTgic,Clayton's Beach Bar & Event Venue,26.1375197,-97.16906440000001,"4RQJ+29 South Padre Island, TX, USA",4.3,4420,2
ChIJjz910zKsb4YRB7K3kka2j1E,Subway,26.0998992,-97.16588370000001,"3RXM+XJ South Padre Island, TX, USA",4.2,171,1
ChIJuUqinTKsb4YRdIx8RGhkEdk,Louie's Backyard,26.1016884,-97.16867059999998,"4R2J+MG South Padre Island, TX, USA",4.0,3955,2
ChIJz_JABEiub4YRX6YBWxjpdzQ,El Buen Pescador,26.0744731,-97.2118449,"3QFQ+Q7 Port Isabel, TX, USA",4.1,854,1
ChIJE4ayPs-tb4YRn0mMYx5faPw,Yummies Bistro,26.0899139,-97.1639167,"3RQP+XC South Padre Island, TX, USA",4.7,1243,2
ChIJV2ycoge-b4YRokqqjXoQu9E,Subway,25.9448622,-97.4295901,"WHVC+W5 Brownsville, TX, USA",4.3,161,1
ChIJpcM-piSsb4YR24LXgvp502o,Blackbeards',26.117032,-97.169046,"4R8J+R9 South Padre Island, TX, USA",4.3,4146,2
ChIJCeCWbcKtb4YRWXgtSzx07Xk,Sea Ranch,26.07656,-97.1649004,"3RGP+J2 South Padre Island, TX, USA",4.4,1126,3
ChIJjyqGEd2tb4YRg3wpNn8crvA,Pier 19,26.0779287,-97.1702223,"3RHH+5W South Padre Island, TX, USA",4.5,3134,2
ChIJCeCWbcKtb4YRgmXT_hZTRRk,Dirty Al's,26.0757632,-97.164085,"3RGP+89 South Padre Island, TX, USA",4.2,2390,2
ChIJbzA3G8-tb4YRwAepqeuuw8Y,Denny's,26.0930427,-97.1647535,"3RVP+63 South Padre Island, TX, USA",3.9,1579,1
ChIJV-gQnrKZb4YRp7XKeKCTi0w,Subway,26.071809,-97.4831063,"3GC8+PQ Los Fresnos, TX, USA",4.6,179,1
ChIJE4ayPs-tb4YRavoIvBUItdM,Gabriella's,26.0899739,-97.1638641,"3RQP+XF South Padre Island, TX, USA",4.3,1614,2
ChIJf2-nXPmWb4YRd8AiWnrkc54,Little Caesars Pizza,25.9821779,-97.4866479,"XGJ7+V8 Brownsville, TX, USA",4.1,421,1
ChIJ7Vax-Uaub4YRQ_D3SDMX_Jk,Manuel's,26.0776611,-97.208564,"3QHR+3H Port Isabel, TX, USA",4.6,734,1
ChIJn5Q_ynmVb4YRVYB7vR6uuPI,Subway,25.8941399,-97.4476901,"VHV2+MW Brownsville, TX, USA",4.3,119,1
ChIJLWl8GM2tb4YR5JG1OJVy32o,Pizza Hut,26.0985649,-97.1663314,"3RXM+CF South Padre Island, TX, USA",3.9,664,1
ChIJHeRn00Cub4YREnDWA6qnObs,Dirty Al's at Pelican Station,26.0772122,-97.2050861,"3QGV+VX Port Isabel, TX, USA",4.5,1299,2
ChIJZQkOmbp0IFMRPBKhUt7Ogr0,Smokey Bonz,48.9958333,-102.5486111,"XFW2+8H Portal, ND, USA",4.4,94,1
ChIJa0gEhDTY54kR-kUbCu9eH3k,Frank Pepe Pizzeria Napoletana,41.3029876,-72.91694190000003,"833M+56 New Haven, CT, USA",4.6,5485,2
ChIJLYyTxUzY54kRl1DVQ7MjH8c,Louis' Lunch,41.30644829999999,-72.9304262,"8349+HR New Haven, CT, USA",4.4,1377,1
ChIJ19RfG3hV3YkRtsUxGoNiu3Q,McDonald's,41.3806641,-73.4816979,"9GJ9+78 Danbury, CT, USA",3.8,473,1
ChIJZcvbLVh06IkRCpjEP8B9elw,Buffalo Wild Wings,41.23604539999999,-73.0357313,"6XP7+CP Milford, CT, USA",4.0,963,2
ChIJRQF_AR0d6IkRQ1LRtm_O1FM,Subway,41.158958,-73.417711,"5H5J+HW Norwalk, CT, USA",3.4,5,1
ChIJN95mYXBV3YkRqbB85Z-eyPo,Chipotle Mexican Grill,41.380326,-73.47943000000002,"9GJC+46 Danbury, CT, USA",3.8,506,1
ChIJIeclzkzY54kRwdokX8TlM5I,Geronimo,41.3066515,-72.9307073,"8349+MP New Haven, CT, USA",4.3,927,2
ChIJ32RdXIatwokR1RdjBaQ_fzI,Purdy's Farmer & the Fish,41.3283061,-73.65563019999998,"88HV+8P North Salem, NY, USA",4.5,600,3
ChIJPSO6YRl26IkRJ_FPNim-lBg,Texas Roadhouse,41.268623,-72.97639000000002,"729F+CC West Haven, CT, USA",4.5,3152,2
ChIJsagnTEvY54kRIfi9QwMk_-M,Prime 16,41.3062,-72.9276,"834C+FX New Haven, CT, USA",4.4,901,2
ChIJV0OqJdQO6IkRjcm8Q-OUXvQ,Sarku Japan,41.23020160000001,-73.22646259999998,"6QJF+3C Trumbull, CT, USA",4.2,193,1
ChIJ1xnRh8_Z54kRM138np1gU-U,Modern Apizza,41.31387120000001,-72.9129578,"837P+GR New Haven, CT, USA",4.6,3021,2
ChIJg-CFK9QO6IkRtxnKYvxXuo8,Pretzelmaker,41.229797,-73.2263712,"6QHF+WF Trumbull, CT, USA",3.1,8,1
ChIJjQVIDJMM6IkRzDRIi0dI3P0,Subway,41.201273500000006,-73.1187688,"6V2J+GF Stratford, CT, USA",2.5,8,1
ChIJf3c9oNbY-4YR81f_1LKibYI,Jason's Deli,32.039813,-102.1122718,"2VQQ+W3 Midland, TX, USA",4.2,443,2
ChIJ3Uyy3QvY-4YRS6Xz8TZ3Vek,Little Caesars Pizza,31.97611,-102.07562,"XWGF+CQ Midland, TX, USA",4.4,200,1
ChIJM-_MEEPJ-4YRXsgXueiMdXc,Subway,31.85360679999999,-102.3655323,"VJ3M+CQ Odessa, TX, USA",4.1,211,1
ChIJNWKXV4fY-4YRtq1nD95Cg24,Subway,32.003404499999995,-102.0780473,"2W3C+9Q Midland, TX, USA",3.9,160,1
ChIJFYo3ICTP-4YRA4JvnXx8qEw,Logan's Roadhouse,31.894709,-102.33058,"VMV9+VQ Odessa, TX, USA",3.4,1175,2
ChIJmXxl_gnY-4YRluEYe4xcqA0,Subway,31.9751477,-102.0710957,"XWGH+3H Midland, TX, USA",2.8,37,1
ChIJA13VIkTZ-4YRMVMr3YysdXI,Saltgrass Steak House,32.02613319999999,-102.1468797,"2VG3+F6 Midland, TX, USA",4.0,1611,2
ChIJO7nydt3Y-4YRjhOoBgbtNdY,Subway,32.02391720000001,-102.1088953,"2VFR+HC Midland, TX, USA",4.0,113,1
ChIJ44PWGTLJ-4YRvwH43EX9kn8,Subway,31.8769289,-102.3481932,"VMG2+QP Odessa, TX, USA",3.8,82,1
ChIJjVtziEXZ-4YRAyoXc94a38Q,Subway,32.0297878,-102.1487361,"2VH2+WG Midland, TX, USA",2.9,35,1
ChIJ2QillQvZ-4YRUEBGUaogW_g,Subway,32.0026033,-102.1363614,"2V37+2F Midland, TX, USA",4.0,98,1
ChIJm7WxhSbP-4YRX2bVcOAjv4Q,Chili's Grill & Bar,31.8943102,-102.332026,"VMV9+P5 Odessa, TX, USA",3.9,1564,2
ChIJgTgvHA6mIIYR8-Hw_kHU-f0,The Court of Two Sisters,29.957535600000003,-90.0652738,"XW5M+2V New Orleans, LA, USA",4.4,3611,3
ChIJs_quaAymIIYRUwRs2-LHWqA,Bourbon House,29.9546021,-90.069147,"XW3J+R8 New Orleans, LA, USA",4.3,3337,3
ChIJfV2h73KmIIYRRDpBV-crpB8,Mother's Restaurant,29.948984600000006,-90.0670016,"WWXM+H5 New Orleans, LA, USA",4.1,9232,2
ChIJW3d2Wc2lIIYRu-qs_NaSOkg,Commander's Palace,29.9288071,-90.0842041,"WWH8+G8 New Orleans, LA, USA",4.6,4593,3
ChIJ01VeXQymIIYRI6lnasCzx3M,Acme Oyster House,29.9542735,-90.0689651,"XW3J+PC New Orleans, LA, USA",4.5,7359,2
ChIJi2AxW3SmIIYRmML7jsbqtb8,Herbsaint,29.947316,-90.07156100000002,"WWWH+W9 New Orleans, LA, USA",4.6,854,3
ChIJFYDeXQymIIYRh1Cion6Ta9I,Dickie Brennan's Steakhouse,29.9542059,-90.06872790000001,"XW3J+MG New Orleans, LA, USA",4.4,1194,4
ChIJMwzPjvWlIIYRGeDgzUA-gCI,Parkway Bakery & Tavern,29.973623,-90.090254,"XWF5+CV New Orleans, LA, USA",4.7,3496,1
ChIJ28cfCwymIIYRmTnBVitvmZ0,Deanie's Seafood Restaurant in the French Quarter,29.9553468,-90.0698063,"XW4J+43 New Orleans, LA, USA",4.3,6488,2
ChIJ_0e-awymIIYRMGebBF_zWeE,Galatoires,29.9549285,-90.06901979999998,"XW3J+X9 New Orleans, LA, USA",4.3,1160,4
ChIJaS5FoBGmIIYRTXOjqm3XxI0,Muriel's Jackson Square,29.95845219999999,-90.0631866,"XW5P+9P New Orleans, LA, USA",4.6,2581,3
ChIJDyC9Ig6mIIYRDWmrSR08N54,Pat O'Brien's,29.958200800000004,-90.0652973,"XW5M+7V New Orleans, LA, USA",4.5,7600,2
ChIJWegGCA6mIIYRYAiMKN4T4CM,Antoine's Restaurant,29.9567368,-90.06639240000001,"XW4M+MC New Orleans, LA, USA",4.3,2320,3
ChIJGw2RxnKmIIYRk0cBxtskDck,August,29.9499784,-90.06679220000002,"WWXM+X7 New Orleans, LA, USA",4.6,797,4
ChIJhRTlvj-lIIYRb1qdXzLPu-Y,Jacques-Imo's,29.9490722,-90.1322417,"WVX9+J4 New Orleans, LA, USA",4.7,1920,2
ChIJV8vjftWlIIYRZ-31DDm-LA0,Juan's Flying Burrito - LGD,29.930555600000005,-90.075,"WWJF+6X New Orleans, LA, USA",4.5,1366,1
ChIJfdFkksvSNoYRmZX6TTBUpi0,Superior's Steakhouse,32.4535165,-93.74782359999999,"F732+CV Shreveport, LA, USA",4.5,407,2
ChIJG2aPD83SNoYR-TJ-fgbXPuk,Superior Grill,32.44999999999999,-93.7455556,"C7X3+XQ Shreveport, LA, USA",4.4,1772,2
ChIJfdFkksvSNoYRi4qWMx3UB1g,Oyster Bar & Grille,32.45432020000001,-93.747159,"F733+P4 Shreveport, LA, USA",4.4,822,2
ChIJTX3qPwfUNoYRRv5j10aKBQs,Subway,32.388803700000004,-93.8185389,"95QJ+GH Shreveport, LA, USA",2.9,14,1
ChIJoWDZee8yMYYRucoIrmSAqQc,Ralph & Kacoo's,32.51495999999999,-93.7166291,"G77M+X8 Bossier City, LA, USA",4.3,2084,2
ChIJfxQcX_kyMYYR1mMDyN10mQU,Texas Roadhouse,32.520897,-93.70843,"G7CR+9J Bossier City, LA, USA",4.3,2855,2
ChIJyfXwic4sMYYRfRnjIm011vE,Twisted Root Burger Co.,32.42247520000001,-93.7380741,"C7C6+XQ Shreveport, LA, USA",4.4,1384,2
ChIJuVUEHPfSNoYRxs0ULXHGQNw,Subway,32.449661,-93.78064959999999,"C6X9+VP Shreveport, LA, USA",4.3,109,1
ChIJrXO1l0LNNoYRjpWjwtezMoc,Herby-K's,32.49410499999999,-93.76296140000001,"F6VP+JR Shreveport, LA, USA",4.4,1046,2
ChIJoSMQGYjMNoYRgBje3MLOPFU,Subway,32.5575618,-93.781444,"H659+2C Shreveport, LA, USA",4.6,65,1
ChIJRyDcdjLNNoYR0b_noZcfmvI,The Blind Tiger,32.5151739,-93.7468259,"G783+37 Shreveport, LA, USA",4.5,2128,2
ChIJU4R8Zl_NNoYReSJ9rnMKzik,Subway,32.4820313,-93.7603107,"F6JQ+RV Shreveport, LA, USA",4.2,121,1
ChIJwWgLr7XRNoYR3sqSjIVT-QA,Subway,32.4534581,-93.8629055,"F43P+9R Shreveport, LA, USA",4.1,120,1
ChIJrwUGTdIyMYYRcRtqzsw2Om8,Joe's Crab Shack,32.51957290000001,-93.7420329,"G795+R5 Bossier City, LA, USA",4.0,1444,2
ChIJARgegsUyMYYRD5JfnopdTwM,Cattleman's Buffet,32.51005200000001,-93.732955,"G768+2R Bossier City, LA, USA",3.9,367,2
ChIJB-mFwOIsMYYRtc9XNmR5Jvg,Logan's Roadhouse,32.436462,-93.71383,"C7PP+HF Shreveport, LA, USA",4.1,967,2
ChIJvWulHniaTYcROzMKo44399U,Olive Garden Italian Restaurant,40.263589,-111.667271,"787M+C3 Provo, UT, USA",4.3,2269,2
ChIJRdPUvLeBTYcRBcWYE_HOWhE,Texas Roadhouse,40.38813,-111.827406,"95QF+72 Lehi, UT, USA",4.4,3378,2
ChIJ6dB3YoiaTYcR7SEDJXTUJrI,Carrabba's Italian Grill,40.2736275,-111.6794232,"78FC+F6 Orem, UT, USA",4.2,1268,2
ChIJ-QZypK-QTYcR1bxoFI6oPTo,Brick Oven Provo,40.244541,-111.656332,"68VV+RF Provo, UT, USA",4.3,3068,2
ChIJOS2XbeKaTYcRF2sFfZXs7N4,Subway,40.2790429,-111.7161778,"77HM+JG Orem, UT, USA",4.0,89,1
ChIJkytbJCmkTYcROLezCla0uj8,Subway,40.0276476,-111.7563577,"26HV+3F Payson, UT, USA",3.7,46,1
ChIJ23MRcF6XTYcR8a4CIgc0wjQ,Red Robin Gourmet Burgers and Brews,40.21697460000001,-111.6627188,"688P+QW Provo, UT, USA",4.0,1452,2
ChIJDQhO9QqaTYcRclZqtn3dNQM,Little Caesars Pizza,40.25110000000001,-111.66609,"782M+CH Provo, UT, USA",3.5,551,1
ChIJZ-9I4lKXTYcRU3uTb3q_6bA,La Dolce Vita Ristorante Italiano,40.2345004,-111.6570147,"68MV+R5 Provo, UT, USA",4.2,718,2
ChIJxxHS-YuaTYcRHKmoEjlZAQY,P.F. Chang's,40.2745477,-111.6816521,"78F9+R8 Orem, UT, USA",4.0,949,2
ChIJzcyr856BTYcRV61flyZIjUc,Olive Garden Italian Restaurant,40.37724899999999,-111.8124297,"95GQ+V2 American Fork, UT, USA",4.2,2619,2
ChIJK-DOLwyQTYcRsZdqiwyZOsA,Tucanos Brazilian Grill,40.2738452,-111.6836074,"78F8+GH Orem, UT, USA",4.6,4036,3
ChIJhXuNnCi9TYcRNTohFWc71PY,Subway,40.1226186,-111.65424,"48FW+28 Spanish Fork, UT, USA",3.7,149,1
ChIJUdFVwyOaTYcRzBYT01a2yXo,Subway,40.23432169999999,-111.694033,"68M4+P9 Provo, UT, USA",3.9,196,1
ChIJKxHoMqeoTYcRRIsi7ha17JY,Subway,39.97592840000001,-111.7794062,"X6GC+96 Santaquin, UT, USA",4.2,183,1
ChIJxVsZ5dgo24ARE7mzYIDGIco,Pappy & Harriet's,34.1563658,-116.4930925,"5G44+GQ Pioneertown, CA, USA",4.7,2791,2
ChIJX8oo_a7A2oAR13SPR3_uhJM,29 Palms Inn,34.1294638,-116.0487976,"4XH2+QF Twentynine Palms, CA, USA",4.5,672,2
ChIJE1VVxRDI2oARvy7JWp2uZkk,Five Guys,34.210747399999995,-116.0460058,"6X63+7H Twentynine Palms, CA, USA",4.3,272,2
ChIJj9ya0AjY2oARlCH7rInDjAg,Subway,34.1239755,-116.4146652,"4HFP+H4 Yucca Valley, CA, USA",4.0,110,1
ChIJ9TZtpZrH2oARKje1sjF1m-Y,Subway,34.1871798,-116.0544293,"5WPW+V6 Twentynine Palms, CA, USA",3.7,267,1
ChIJPUIZpg_Y2oAR2KXASULE2cA,Subway,34.12971029999999,-116.3970604,"4JH3+V5 Yucca Valley, CA, USA",4.0,62,1
ChIJYw7uuiPa2oARMMBS-ztEohc,Crossroads Cafe,34.134704,-116.3169832,"4MMM+V6 Joshua Tree, CA, USA",4.4,993,2
ChIJqW-1pUzH2oARfWbDLXEleI0,Papa John's Pizza,34.1352557,-116.0575912,"4WPR+4X Twentynine Palms, CA, USA",4.2,125,1
ChIJkdZHjRDY2oARDmra2ebmZaY,Applebee's Grill + Bar,34.126982299999995,-116.404035,"4HGW+Q9 Yucca Valley, CA, USA",4.0,1136,2
ChIJaQhXmZrH2oARZDX-laThqy0,Domino's Pizza,34.187248600000004,-116.05488429999998,"5WPW+V2 Twentynine Palms, CA, USA",3.7,160,1
ChIJ9zNE66zA2oARcSjj4766HEk,Circle K,34.13548060000001,-116.0488588,"4XP2+5F Twentynine Palms, CA, USA",4.2,32,1
ChIJG0qPFXG0xIAR39E6T2dayH4,Subway,34.247305700000005,-116.8836685,"64W8+WG Big Bear Lake, CA, USA",3.7,261,1
ChIJd2as8g_Y2oARWaaF4dyj-NM,Little Caesars Pizza,34.12642,-116.40911,"4HGR+H9 Yucca Valley, CA, USA",3.7,196,1
ChIJN9iTx9DG2oARBYZDJRFWm8c,Subway,34.1361213,-116.0594611,"4WPR+C6 Twentynine Palms, CA, USA",4.1,133,1
ChIJ09dCC1kWxYAR0fuiqO-SZsY,Ludlow Cafe,34.72346,-116.16339,"PRFP+9J Ludlow, CA, USA",4.0,682,1
ChIJc0Pu_vYh24ARaXxQIbVwEVk,$5 Pizza Place,33.9610852,-116.51058799999998,"XF6Q+CQ Desert Hot Springs, CA, USA",4.0,332,2
ChIJTY4mQE3H2oARcIYcleuKNp4,Little Caesars Pizza,34.1369655,-116.0546678,"4WPW+Q4 Twentynine Palms, CA, USA",3.6,232,1
ChIJUdE2IWcq24AR2phAdxlw1gI,$5 Pizza Place,34.2483839,-116.44007820000002,"6HX5+9X Yucca Valley, CA, USA",4.5,286,1
ChIJwbKmAyPa2oARxhKm32KECuk,Subway,34.135553200000004,-116.3154784,"4MPM+6R Joshua Tree, CA, USA",4.1,91,1
ChIJxaZn1RTzUocR-K5XZCz5uzE,High West Saloon,40.6466387,-111.4985895,"JGW2+MH Park City, UT, USA",4.4,700,3
ChIJs-ZqxLRyUocRsKnDLz39qkA,The Brass Tag,40.644232,-111.476307,"JGVF+MF Park City, UT, USA",4.6,170,3
ChIJ_4sJ6bZyUocROaDtfpUTE1s,Signature Collection of Private Homes & Condominiums,40.643109,-111.483072,"JGV8+6Q Park City, UT, USA",4.6,67,2
ChIJ5dVEwdlyUocR8VyqwiTHtDU,Mariposa,40.62201700000001,-111.488181,"JGC6+RP Park City, UT, USA",4.6,73,3
ChIJv7yzteJyUocRkhaEbvH22eg,Apex,40.6160648,-111.5120823,"JF8Q+C5 Park City, UT, USA",4.4,49,3
ChIJVVUVlmZtUocRQKAR5NGOXps,Boneyard Saloon & Wine Dive,40.6611109,-111.5040707,"MF6W+C9 Park City, UT, USA",4.4,941,2
ChIJtXQxdmdtUocR0-Cy3K2wqUE,Subway,40.662004,-111.5084131,"MF6R+RJ Park City, UT, USA",3.6,47,1
ChIJmTCnqIoFUocRAfx1Ag-d1Io,Subway,40.64073870000001,-111.2849364,"JPR8+72 Kamas, UT, USA",3.7,62,1
ChIJEUBguJf1TYcR1CR33O-ByB8,Subway,40.4990001,-111.4140683,"FHXP+J9 Heber City, UT, USA",4.2,172,1
ChIJW0lLvtlyUocRlTzMQiuMFoA,Goldener Hirsch,40.6225,-111.4888889,"JGF6+2C Park City, UT, USA",4.6,101,3
ChIJ4_QxOzNsUocROlkHkxMRPKY,Edge Steakhouse,40.6842689,-111.555397,"MCMV+PR Park City, UT, USA",4.4,157,3
ChIJq0vkWXFsUocRtNMi-rD3kbY,Ghidotti's,40.7199585,-111.5406642,"PF95+XP Park City, UT, USA",4.1,358,2
ChIJIzcS1mRtUocR6Eru7arbqHc,Squatters Roadhouse Grill,40.6609311,-111.5107117,"MF6Q+9P Park City, UT, USA",4.3,1314,2
ChIJcz-yIJxyUocRE6FeucmR3zs,Baja Cantina,40.6515786,-111.5071636,"MF2V+J4 Park City, UT, USA",3.7,525,2
ChIJwX9JcoprUocRFagv8YBfLCY,Subway,40.7249282,-111.542482,"PFF5+X2 Park City, UT, USA",3.8,87,1
ChIJ6atWaKz6JYcRW8gqDT5v5Mg,Subway,34.5071473,-109.3821768,"GJ49+V4 Saint Johns, AZ, USA",4.2,148,1
ChIJX-xLF6z6JYcR2Cn2orIWsIo,Ditty’s Pizza,34.50659869999999,-109.3638677,"GJ4P+JF Saint Johns, AZ, USA",4.4,92,2
ChIJSffq2FrlJYcR9_22oT7GLcs,Circle K,34.5060511,-109.3640646,"GJ4P+C9 Saint Johns, AZ, USA",3.8,21,1
ChIJWbP4C_2qJYcRRpTKKycrzI4,Subway,35.06995089999999,-108.8458693,"3593+XM Zuni, NM, USA",4.3,8,1
ChIJvfbvmUTlJYcRa_JBYs3MWXQ,El Camino Restaurant,34.5032013,-109.3609363,"GJ3Q+7J Saint Johns, AZ, USA",4.2,197,1
ChIJ9U9SowGrJYcRPCtHYVJu1Kk,Halona Plaza,35.0654715,-108.8510014,"348X+5H Zuni, NM, USA",4.4,177,2
ChIJv39v76z6JYcRL9d0NExh_jc,El Cupidos,34.50606679999999,-109.3803069,"GJ49+CV Saint Johns, AZ, USA",4.4,269,1
ChIJX-xOMdmqJYcRsLfVRxp2LeA,Chu Chu's Restaurant,35.07492759999999,-108.8231071,"35FG+XQ Zuni, NM, USA",4.2,171,2
ChIJzSgZvPvNtFQR4MByN9vxnLs,Shell,41.5672219,-117.7856937,"H687+VP Orovada, Winnemucca, NV, USA",3.9,18,2
ChIJE_HIATw8FYgR9SiSvJtzMyc,Subway,40.1580458,-85.3687118,"5J5J+6G Muncie, IN, USA",3.8,13,1
ChIJBQpXydcXFYgRzNrMlSz8nI4,Chuck E. Cheese,40.2174814,-85.4049517,"6H8W+X2 Muncie, IN, USA",4.3,367,2
ChIJZXscCSEWFYgR6VuSp5LvExk,Subway,40.2199895,-85.3785673,"6J9C+XH Muncie, IN, USA",4.3,74,1
ChIJgVP7VB8WFYgRdA1gFKm2i1I,Auntie Anne's,40.2215294,-85.37539050000002,"6JCF+JR Muncie, IN, USA",4.4,14,1
ChIJMbK30CI9FYgR03XRY6YK4VA,Little Caesars Pizza,40.1866983,-85.42113169999998,"5HPH+MG Muncie, IN, USA",3.7,216,1
ChIJvb5D893RP4gR5PBJsKOz5UA,Subway,40.4150258,-84.77972120000003,"C68C+24 Fort Recovery, OH, USA",3.3,9,1
ChIJi-B3Y9gXFYgRoYpZvj6oSXc,Ruby Tuesday,40.218517,-85.40857,"6H9R+CH Muncie, IN, USA",4.0,573,2
ChIJVSk5OP0XFYgRoRwl38cc1vM,Subway,40.21991959999999,-85.4282966,"6H9C+XM Muncie, IN, USA",4.4,136,1
ChIJuTNgktN9FYgR1gwr0ZEAOe8,Subway,40.43932849999999,-84.9775105,"C2QC+PX Portland, IN, USA",3.7,152,1
ChIJKwVAmp49FYgRuZ7TJlBWmwY,Amazing Joe's Grill,40.2014959,-85.39288020000002,"6J24+HR Muncie, IN, USA",4.6,1436,2
ChIJjatB3hQ9FYgRkGpcFySBxy4,Subway,40.1968927,-85.41461850000002,"5HWP+Q5 Muncie, IN, USA",4.2,90,1
ChIJRzxCCyM9FYgRKTG91PQRPQ4,Subway,40.1860536,-85.4208328,"5HPH+CM Muncie, IN, USA",4.2,99,1
ChIJVfASyMFBFYgR_hvNHanALQo,Subway,40.1926948,-85.21140520000002,"5QVQ+3C Parker City, IN, USA",4.1,15,1
ChIJO0i1iuEiFYgRnfmemiXU8C4,Subway,40.1808053,-85.46317490000001,"5GJP+8P Yorktown, IN, USA",4.0,128,1
ChIJhx2TizRuFYgRk-hTOH3p1Xk,Subway,40.3537797,-85.1507347,"9R3X+GP Redkey, IN, USA",4.0,9,1
ChIJkzzK-ZkGFYgRVdhn5YVyLG8,Subway,40.4758549,-85.49403290000002,"FGG4+89 Upland, IN, USA",4.0,62,1
ChIJUyXBmEwJFYgRtDz7YiSOs2s,Subway,40.46243159999999,-85.37033989999998,"FJ6H+XV Hartford City, IN, USA",3.9,135,1
ChIJn9tOpI5tFYgRSz79WXVql3o,Subway,40.368351,-85.21436340000002,"9Q9P+87 Dunkirk, IN, USA",3.7,37,1
ChIJ8ck2oB6gFYgRYmqJQJbj8tI,Subway,40.55339960000001,-85.2758648,"HP3F+9M Montpelier, IN, USA",4.0,19,1
ChIJJVh4_50GFYgR9FApk29vfNg,Ivanhoes,40.465836,-85.494098,"FG84+89 Upland, IN, USA",4.6,2317,2
ChIJzSgZvPvNtFQR4MByN9vxnLs,Shell,41.5672219,-117.7856937,"H687+VP Orovada, Winnemucca, NV, USA",3.9,18,2
ChIJ0T2NYDmRy4kRFelAmzl8isQ,Auntie Anne's,40.4691277,-78.4116483,"FH9Q+M8 Altoona, PA, USA",3.9,16,1
ChIJU50EWmFTyokR70lZxzrsmrg,Jean Bonnet Tavern,40.04236020000001,-78.56065629999998,"2CRQ+WP Bedford, PA, USA",4.6,2022,2
ChIJw69IdG6Ry4kRtpf2ONrpyoM,Olive Garden Italian Restaurant,40.48342090000001,-78.40040859999998,"FHMX+9R Altoona, PA, USA",4.4,2152,2
ChIJM14X5uAryokRcJbmz0gCH9w,Tower Ridge Inn Bar&Grill,39.9683456,-78.0233688,"XX9G+8M McConnellsburg, PA, USA",4.5,263,2
ChIJu0jhF_o0yokRiPyoeic2Uso,Shell,39.99981059999999,-78.2380569,"XQX6+WQ Breezewood, PA, USA",3.5,6,2
ChIJndGds_A0yokRzLZrxTwH_xw,Papi's Subs,39.99898169999999,-78.23556620000002,"XQX7+HQ Breezewood, PA, USA",4.0,48,1
ChIJQzP9czSRy4kRRU4sVzYlDrI,Outback Steakhouse,40.45952800000001,-78.40991240000002,"FH5R+R2 Altoona, PA, USA",4.2,1213,2
ChIJMxmE2Ba_y4kR5JQZMPoarQY,Subway,40.31083,-78.3243138,"8M6G+87 Martinsburg, PA, USA",4.6,65,1
ChIJMdtfwyGUy4kRQer3k5zKj4Y,Subway,40.431963,-78.380775,"CJJ9+QM Hollidaysburg, PA, USA",3.7,42,1
ChIJg9Sv5NG9y4kRYS6oBDAm2bk,Subway,40.33977520000001,-78.3947151,"8JQ4+W4 Roaring Spring, PA, USA",4.2,64,1
ChIJC6V63Xi9y4kRC_5GZ-JsLaI,Subway,40.37015299999999,-78.43239890000002,"9HC9+32 Duncansville, PA, USA",3.9,47,1
ChIJr0FmQeWWy4kRcN5V4xpUHbs,Subway,40.42724129999999,-78.4216217,"CHGH+V9 Duncansville, PA, USA",4.5,42,1
ChIJBzDxOI9hyYkR1diNiEPCxkc,Subway,40.24741100000001,-77.89478179999998,"64W4+X3 Orbisonia, PA, USA",4.5,12,1
ChIJUzEXBXGRy4kRC973qtkwCwo,Papa John's Pizza,40.4878643,-78.3995561,"FJQ2+45 Altoona, PA, USA",4.2,130,1
ChIJEb9EqDqRy4kRsKiw35Ml0HA,Subway,40.4665939,-78.4179137,"FH8J+JR Altoona, PA, USA",4.2,79,1
ChIJK4A3M_qRy4kRAUwvnukOKk8,Little Caesars Pizza,40.52671,-78.39067,"GJG5+MP Altoona, PA, USA",4.1,113,1
ChIJ944o2gqIyYkRycExDZPMMY4,Subway,39.8356505,-77.9071791,"R3PV+74 Mercersburg, PA, USA",4.1,56,1
ChIJ5_3rvAaXy4kRfzpX4ctiGOI,Best Way Pizza - Duncansville,40.42256099999999,-78.437023,"CHF7+25 Duncansville, PA, USA",4.6,281,1
ChIJc3BsLVTjy4kRS_CVEvBx1b4,Subway,40.479925,-78.01632049999998,"FXHM+XF Huntingdon, PA, USA",4.1,117,1
ChIJq5Rc4x2Oy4kRBdpXGPHOL80,Subway,40.53584160000001,-78.39956269999998,"GJP2+85 Altoona, PA, USA",4.1,81,1
ChIJ98e31YJ8yIcRUKRDjAcYUL8,Subway,37.0728971,-94.47278100000001,"3GFG+5V Joplin, MO, USA",4.0,71,1
ChIJl3WCdFh7yIcRXa5_ZAVU2X8,Subway,37.0542703,-94.4796613,"3G3C+P4 Joplin, MO, USA",3.8,64,1
ChIJX_oBdxHGyIcR3-6If6D1xbU,Simple Simon's Pizza,36.8156723,-93.9268657,"R38F+77 Purdy, MO, USA",4.1,14,1
ChIJN5kOWGI_yIcRf9OmRi97YRw,River Bend Casino And Hotel,36.80301300000001,-94.7291405,"R73C+68 Wyandotte, OK, USA",4.0,2126,2
ChIJMced0qh8yIcR59k1nGsGPbI,Cheddar's Scratch Kitchen,37.0479701,-94.4753976,"2GXF+5R Joplin, MO, USA",4.4,2098,2
ChIJkRkpDnEXyIcR1PFRH2JNfk0,Subway,36.87071299999999,-94.869832,"V4CJ+73 Miami, OK, USA",3.9,132,1
ChIJ8V6d_ld6yIcRRKCt5vHxC8c,Little Caesars Pizza,37.0826287,-94.530752,"3FM9+3M Joplin, MO, USA",3.7,346,1
ChIJz1IZdUT1yIcRA0ACCR4aW5A,Subway,36.8538806,-94.3840527,"VJ38+H9 Neosho, MO, USA",4.2,191,1
ChIJj5B8O1t7yIcR43CY114Dvk4,Panera Bread,37.055497,-94.48869,"3G46+5G Joplin, MO, USA",4.2,655,2
ChIJVQ_j3-VWyIcRsyGJ1T6vzYc,Subway,36.6495801,-94.4240117,"JHXG+R9 Anderson, MO, USA",4.0,75,1
ChIJMbJXIi80yIcR8wRRKs8GGfk,Subway,36.5937776,-94.7767416,"H6VF+G8 Grove, OK, USA",3.9,157,1
ChIJ7VzlhnBlyIcRij8Zefnyq38,Subway,37.00643399999999,-94.5499692,"2F42+H2 Joplin, MO, USA",4.5,26,1
ChIJUzREoF1CyIcRz90ml1semME,Subway,36.8419454,-94.6115825,"R9RQ+Q9 Seneca, MO, USA",4.4,41,1
ChIJ3SNsBnl8yIcRYlmUeF9PnxE,Logan's Roadhouse,37.09294999999999,-94.47639,"3GVF+5C Joplin, MO, USA",4.1,1064,2
ChIJdzXIssZ6yIcRWuHGlBIUTb0,Subway,37.0549145,-94.5362475,"3F37+XG Joplin, MO, USA",4.2,49,1
ChIJdcLOS0l7k1QRqSywtIrereQ,Fort George Brewery,46.1883759,-123.8275168,"55QC+9X Astoria, OR, USA",4.5,1374,2
ChIJhySCuxaUlFQRfUx6y80aE_4,Camp 18 Restaurant,45.88621029999999,-123.6151139,"V9PM+FX Seaside, OR, USA",4.5,2609,2
ChIJJUTB79-klFQRYt5ZQbnLmlI,The Wayfarer Restaurant and Lounge,45.8896357,-123.9632965,"V2QP+VM Cannon Beach, OR, USA",4.2,1475,2
ChIJv-UkEclkk1QRwQxEvJ3kGug,Bridgewater Bistro,46.18958129999999,-123.8516077,"54QX+R9 Astoria, OR, USA",4.5,1260,2
ChIJh4KBmG9kk1QRMLI9G_aUW6k,Subway,46.1612515,-123.9007032,"536X+GP Warrenton, OR, USA",3.8,144,1
ChIJiyuM2spkk1QR5tzxxiLqb4g,Subway,46.1904096,-123.8418003,"55R5+57 Astoria, OR, USA",3.5,225,1
ChIJaYgsSlINk1QRe3nuIXvmD0A,Subway,46.34520819999999,-124.0544039,"8WWW+36 Long Beach, WA, USA",4.0,293,1
ChIJiYgpKkp7k1QR4x05tNuJKcI,Astoria Brewing Company,46.190197,-123.83140559999998,"55R9+3C Astoria, OR, USA",4.4,1601,2
ChIJQRNShjKllFQRAX0HG3Z6WyU,Mo's Restaurant,45.872165,-123.961685,"V2CQ+V8 Tolovana Park, Cannon Beach, OR, USA",4.3,2656,2
ChIJuxw-S0l7k1QRrqZFSOXxvkw,Blue Scorcher Bakery & Cafe,46.1883595,-123.82730320000002,"55QF+83 Astoria, OR, USA",4.5,543,2
ChIJK0LkpKhkk1QRvNQ5bhOZ_68,Fultano's Pizza,46.17362670000001,-123.8369771,"55F7+F6 Astoria, OR, USA",4.3,612,2
ChIJw7idLuSklFQRrYOImCffY4Q,Lazy Susan Cafe,45.8969377,-123.9610898,"V2WQ+QH Cannon Beach, OR, USA",4.6,657,2
ChIJyTVHoGltk1QR6cZ0UsSp6Ho,The DEPOT Restaurant,46.33009600000001,-124.0557826,"8WJV+2M Seaview, WA, USA",4.7,487,3
ChIJ-eoiLUp7k1QR1YObPvj-lxw,Astoria Coffee House & Bistro,46.1894423,-123.831985,"55Q9+Q6 Astoria, OR, USA",4.3,781,2
ChIJMe37I297k1QR6Jg90vLC5XU,Rogue Pier 39 Public House,46.1965763,-123.7977958,"56W2+JV Astoria, OR, USA",4.2,1503,2
ChIJjbpSD_6KYogRdD46UED7rH4,Logan's Roadhouse,34.785667,-86.9409,"Q3P5+7J Athens, AL, USA",3.8,1287,2
ChIJycNAzq-jY4gRM3CFMndkv-8,Subway,35.4711425,-86.79147259999998,"F6C5+FC Lewisburg, TN, USA",3.8,45,1
ChIJSXfpJXejY4gRXSNoBOJIcdY,Subway,35.447189,-86.778252,"C6WC+VM Lewisburg, TN, USA",3.8,90,1
ChIJn7FAnAjRY4gRAzywCzY1Spg,Miss Mary Bobo's Restaurant,35.28149929999999,-86.37489520000003,"7JJG+H2 Lynchburg, TN, USA",4.6,593,2
ChIJNT75p8ACY4gRj1Ar3b-dm9s,Subway,35.2006237,-87.04654559999999,"6X23+69 Pulaski, TN, USA",4.2,181,1
ChIJp9GX_soCY4gR6baUohSYPoo,Subway,35.20144979999999,-87.06040569999998,"6W2Q+HR Pulaski, TN, USA",3.9,46,1
ChIJ7YrmdMACY4gR61aRP87ogYI,Little Caesars Pizza,35.200918,-87.043786,"6X24+9F Pulaski, TN, USA",3.5,193,1
ChIJx-M95Gg1YogRBqYbq8RXyas,Subway,35.1385295,-86.56690909999998,"4CQM+C6 Fayetteville, TN, USA",4.1,114,1
ChIJPUDX4Gg1YogRKZYpaf4-qJY,Little Caesars Pizza,35.13697839999999,-86.56767060000001,"4CPJ+QW Fayetteville, TN, USA",3.9,124,1
ChIJQfey8YU4YogRXr9fSC9XjSE,Subway,34.94055819999999,-86.5707874,"WCRH+6M Hazel Green, AL, USA",4.3,89,1
ChIJ4ROvqSKLYogR9jVYJKTdCAM,Subway,34.8011107,-86.9531334,"R22W+CP Athens, AL, USA",4.0,76,1
ChIJvxM2H_FCYogRWT7KPncR-AY,Subway,34.8454265,-86.71048979999998,"R7WQ+5R Harvest, AL, USA",3.9,62,1
ChIJ86EadZcmY4gRsN1GVRPsiGg,Subway,35.262791,-87.322946,"7M7G+4R Lawrenceburg, TN, USA",4.3,72,1
ChIJ4ROvqSKLYogRO7lucI_-lgU,Little Caesars Pizza,34.80098340000001,-86.9529876,"R22W+9R Athens, AL, USA",4.0,280,1
ChIJGw0govpnYogR67rwghiiw8w,Subway,34.80519279999999,-86.74843109999998,"R742+3J Madison, AL, USA",4.0,161,1
ChIJMWvoZ2-LYogR51HdJAzdhUk,Subway,34.7919184,-86.9719605,"Q2RH+Q6 Athens, AL, USA",4.2,282,1
ChIJtT7u46fRY4gRYKS-TAEtmdk,Subway,35.28087589999999,-86.3790494,"7JJC+99 Lynchburg, TN, USA",3.6,63,1
ChIJge9cmG8_YogR49KjH1rbWfM,Subway,34.85583130000001,-86.57231329999998,"VC4H+83 Meridianville, AL, USA",4.3,75,1
ChIJw_zymgtyY4gRhLmRWYXINrQ,Subway,35.5908468,-87.0488967,"HXR2+8C Columbia, TN, USA",4.0,65,1
ChIJo3jnKqsS54YRsxdjaF_z97k,Cattleman's Steakhouse at Indian Cliffs Ranch,31.56183260000001,-106.0672306,"HW6M+P4 Fabens, TX, USA",4.7,4308,3
ChIJX2Zhjxxb54YRKbax-U-ovHc,Subway,31.7758362,-106.3790673,"QJGC+89 El Paso, TX, USA",4.2,43,1
ChIJKd43xq1E54YRVoHr4MnPimg,Texas Roadhouse,31.751305,-106.34157,"QM25+G9 El Paso, TX, USA",4.5,3935,2
ChIJX2Zhjxxb54YRRWl_2BmLF4c,Chinese Gourmet Express,31.7756715,-106.3794127,"QJGC+76 El Paso, TX, USA",3.7,74,1
ChIJTT_0uk5a54YRZCbHcJXkTQ8,Chinese Gourmet Express,31.7836964,-106.4114223,"QHMQ+FC El Paso, TX, USA",3.1,52,1
ChIJkzopHEha54YR6rcLg4il8-4,Los Bandidos De Carlos & Mickey's,31.786285,-106.417029,"QHPM+G5 El Paso, TX, USA",4.4,3656,2
ChIJHbDBuB9D54YRweA8w79u3aA,Subway,31.7022937,-106.3201943,"PM2H+WW El Paso, TX, USA",3.6,71,1
ChIJ6zrpMeZa54YRuiPRxbtkBmw,Subway,31.792182,-106.3736163,"QJRG+VH El Paso, TX, USA",4.0,133,1
ChIJK86IWBhb54YRjycXzM61COE,Little Caesars Pizza,31.77446,-106.37,"QJFJ+Q2 El Paso, TX, USA",3.9,282,1
ChIJ97OSAf1a54YRbn1CcXaFAUM,Hooters,31.778672,-106.3848291,"QJH8+F3 El Paso, TX, USA",4.1,2038,2
ChIJX2Zhjxxb54YRr-tDRQssGGA,Olive Garden Italian Restaurant,31.773669999999992,-106.379256,"QJFC+F7 El Paso, TX, USA",4.2,2560,2
ChIJIUq18HRD54YRMDlue-7GC08,IHOP,31.7267287,-106.3034648,"PMGW+MJ El Paso, TX, USA",4.3,1811,1
ChIJ1RZnsQNb54YReOTDUjsWw9Y,McDonald's,31.7769377,-106.3848879,"QJG8+Q2 El Paso, TX, USA",3.6,175,1
ChIJy0jLbCVR54YRQd8QIDddKJo,Little Caesars Pizza,31.870890000000006,-106.427,"VHCF+96 El Paso, TX, USA",3.9,282,1
ChIJQdRkEslB54YRSpHA2cnYMJU,Subway,31.697767,-106.21237109999998,"MQXQ+43 Horizon City, TX, USA",3.6,112,1
ChIJxShSprNE54YRDqy8Ie8iaHI,Subway,31.755657299999992,-106.3442337,"QM44+78 El Paso, TX, USA",4.3,120,1
ChIJXbrvXiK0l4cRRUfn5LJzQlQ,Subway,40.14711930000001,-97.17265259999999,"4RWG+RW Fairbury, NE, USA",3.9,106,1
ChIJyyGsH7aRl4cRqA4iIBo8wco,Subway,40.1759364,-97.57583249999999,"5CGF+9M Hebron, NE, USA",4.1,121,1
ChIJm2LEfGxwl4cRiP3KD5WrzMk,Subway,40.5241181,-97.5951012,"GCF3+JX Geneva, NE, USA",3.9,114,1
ChIJj-Ha_Kb5locRtPiIUHOnzeU,Subway,40.47912919999999,-96.9609368,"F2HQ+MJ Wilber, NE, USA",3.9,23,1
ChIJIZbhLgLllocR-69Gfzpas2A,Subway,40.6224201,-96.9622327,"J2CQ+X4 Crete, NE, USA",3.2,29,1
ChIJ125kaFprl4cR3Ludr5zab3c,Sweetwater Inc,40.64449359999999,-97.44999659999999,"JHV2+Q2 Exeter, NE, USA",4.1,19,1
ChIJ0eQwCaORl4cRXL8bn4MyMrY,Casey's,40.1661979,-97.57693809999999,"5C8F+F6 Hebron, NE, USA",3.9,17,1
ChIJW_Jt2im0l4cRcVrU1WT34Tk,Rowdy's Steakhouse,40.1347365,-97.1787427,"4RMC+VG Fairbury, NE, USA",4.4,273,2
ChIJz_1SnHS-l4cRWKKrzYxS6qw,Pioneers Inn Restaurant,40.14528189999999,-97.4143942,"4HWP+46 Gilead, NE, USA",4.5,71,1
ChIJ53SR8Ta7l4cR263IJItXFAI,The Snack Shack,40.2334841,-97.3267885,"6MMF+97 Alexandria, NE, USA",4.4,26,1
ChIJrUx3DCi0l4cRHYz_WIXxKVw,Classic Cones,40.1374685,-97.1779804,"4RPC+XR Fairbury, NE, USA",4.7,42,1
ChIJF2_qC_qcl4cRwhnkv3M9AOo,Shell,40.3364858,-97.57565059999999,"8CPF+HP Bruning, NE, USA",3.0,4,2
ChIJGWC_evqcl4cRton5N1sMI2s,Valentino's,40.3366808,-97.5756861,"8CPF+MP Bruning, NE, USA",4.1,17,2
ChIJW_U5i6KRl4cRjX6oBq6K-OU,Valentino's,40.1645463,-97.5769883,"5C7F+R6 Hebron, NE, USA",3.8,40,2
ChIJ-xSM_qb5locRix8h6kzim6A,Casey's,40.478832800000006,-96.96114159999999,"F2HQ+GG Wilber, NE, USA",3.9,35,1
ChIJWUsjz1lrl4cRJI-RZYZW3iM,Casey's,40.6407643,-97.4496391,"JHR2+84 Exeter, NE, USA",4.0,10,1
ChIJF0X0_C9IuFIRdKNHe1CEK-w,The 89 Bar & Grill,47.6655083,-95.0099856,"MX8R+62 Bemidji, MN, USA",4.3,115,2
ChIJ34ktS-q-uVIRfQBtFxgF1_g,Shell,47.7292567,-94.5543729,"PCHW+P7 Blackduck, MN, USA",3.8,4,2
ChIJlbhSqO2-uVIRKmhTNEnHU_I,Hungry Duck,47.7304572,-94.5482395,"PFJ2+5P Blackduck, MN, USA",4.6,49,1
ChIJQVpYgABRuFIRBIMogEsaUms,Subway,47.8761956,-95.0232196,"VXGG+FP Red Lake, MN, USA",4.7,3,1
ChIJs32NE0-5uVIRLlahnFrZ_Vw,Hillcrest Supper Club & Resort,47.73786539999999,-94.5906066,"PCQ5+4Q Hines, MN, USA",4.6,109,2
ChIJY0xNjLmq-ocRxrBeVXhPZLw,Montage,42.53611110000001,-92.4452778,"GHP3+CV Cedar Falls, IA, USA",4.7,309,3
ChIJgQie3gDY8YcRA9xDBDhiFQE,Subway,42.509424,-93.2617506,"GP5Q+Q7 Iowa Falls, IA, USA",4.0,108,1
ChIJ_ymElVwt7ocRUeT6gpT_gL8,Subway,42.36013300000001,-93.1135135,"9V6P+3H Eldora, IA, USA",4.2,61,1
ChIJSUaklVLd74cRnHRqBrLpvEE,Subway,42.3611823,-92.78692490000002,"9667+F6 Grundy Center, IA, USA",4.0,86,1
ChIJnyNyyp9V5YcRrfvMAj5VZn0,Subway,42.48450130000001,-92.4427349,"FHM4+RW Cedar Falls, IA, USA",4.2,118,1
ChIJC-GXagkA8IcRtItnZP9ejRU,Subway,42.53818029999999,-92.4640763,"GGQP+79 Cedar Falls, IA, USA",4.3,90,1
ChIJ5yuDqxal74cRnlyPfXketnQ,Subway,42.0161877,-92.9129604,"238P+FR Marshalltown, IA, USA",3.8,173,1
ChIJLxgXnSZV5YcR2Ji7IbT0Tr8,Texas Roadhouse,42.5117953,-92.4265102,"GH6F+P9 Cedar Falls, IA, USA",4.5,2242,2
ChIJb2uy3yzJ8YcRjRU8d4pyvBY,Subway,42.7419927,-93.2107553,"PQRQ+QM Hampton, IA, USA",4.2,42,1
ChIJtXzkz-pU5YcRYnpeTpxafAg,Little Caesars Pizza,42.5044123,-92.4016854,"GH3X+Q8 Waterloo, IA, USA",3.4,207,1
ChIJkxob9zpV5YcRe7LCqoWAzuI,Famous Dave's Bar-B-Que,42.513758,-92.433093,"GH78+GQ Cedar Falls, IA, USA",4.2,786,2
ChIJednHnHxT5YcRgPxBYAnjvtk,Subway,42.4951111,-92.3764592,"FJWF+2C Waterloo, IA, USA",4.2,219,1
ChIJ_a3wuUtV5YcRTMnxOONsyUs,Mulligan's Brick Oven Grill & Pub,42.52154619999999,-92.4437524,"GHC4+JF Cedar Falls, IA, USA",4.4,555,2
ChIJAQLmdZeq-ocRN5prHTSmaHQ,Cedar Falls Brown Bottle,42.54704599999999,-92.450257,"GGWX+RV Cedar Falls, IA, USA",4.6,502,2
ChIJ6Yw6pTVV5YcRj5mo2T1NCS0,Peppers Grill & Sports Pub,42.521988,-92.439126,"GHC6+Q8 Cedar Falls, IA, USA",4.4,797,2
ChIJV0PuLztV5YcRjzybLhLFcTI,Village Inn,42.51232840000001,-92.4341305,"GH68+W8 Cedar Falls, IA, USA",4.4,551,1
ChIJmw96z63_74cRaX6FZA6nbpM,Barn Happy,42.4929239,-92.4961322,"FGV3+5G Cedar Falls, IA, USA",4.8,160,2
ChIJcUN9gsRT5YcRLsBjwSvJnSY,Subway,42.46018730000001,-92.3572378,"FJ6V+34 Waterloo, IA, USA",4.2,128,1
ChIJw_39OiNT6oARBz1QU-uC0gc,Subway,35.40027960000001,-119.3975637,"CJ22+4X Buttonwillow, CA, USA",3.1,84,1
ChIJ2U0MYpifToYRGsjKnrAF3gY,In-N-Out Burger,35.9861368,-119.9592831,"X2PR+F7 Kettleman City, CA, USA",4.5,4739,1
ChIJTWJK1TxT6oARMSCesa-Jya8,Willow Ranch,35.4022081,-119.397659,"CJ22+VW Buttonwillow, CA, USA",4.5,1097,2
ChIJA1w9hk9N64AROVmSWNfzYJ4,Subway,35.98845589999999,-119.9602875,"X2QQ+9V Kettleman City, CA, USA",3.5,62,1
ChIJccehAiNT6oARFg_8Ze6Bamo,Starbucks,35.4002545,-119.39744170000002,"CJ23+42 Buttonwillow, CA, USA",4.2,877,2
ChIJByWNqwZX6oAR7R6J01adX20,Little Caesars Pizza,35.500797,-119.27241,"GP2H+82 Shafter, CA, USA",3.3,143,1
ChIJE3_4hEVN64ARY0BwwhK82ts,Starbucks,35.98777000000001,-119.959305,"X2QR+47 Kettleman City, CA, USA",4.1,666,2
ChIJTyTC-s4R64ARnbMgqfTLwXY,Subway,35.6155043,-119.6578239,"J88R+6V Lost Hills, CA, USA",3.3,55,1
ChIJUSqhNc8R64ARSm0CEBYk_WE,7-Eleven,35.616877,-119.6599437,"J88R+Q2 Lost Hills, CA, USA",4.4,15,1
ChIJ1cZVfYwR64AR7n9WvdZYJEY,Arby's,35.6166442,-119.6588796,"J88R+MC Lost Hills, CA, USA",4.0,657,1
ChIJOymh8M4R64ARI17YwimmMmA,Pizza Hut Express,35.6159012,-119.6579729,"J88R+9R Lost Hills, CA, USA",3.9,15,1
ChIJp6-kZs4R64ARQoxkXN4Tm6A,Dairy Queen Grill & Chill,35.6151724,-119.6568227,"J88V+37 Lost Hills, CA, USA",3.8,186,1
ChIJOXCrMRBs64AR8ZHjk2bihRk,Denny's,35.61682800000001,-119.656315,"J88V+PF Lost Hills, CA, USA",4.0,1438,1
ChIJq8VWNZz-6oARNPINjJVsoQ0,Subway,35.60129310000001,-119.3556594,"JJ2V+GP Wasco, CA, USA",4.0,77,1
ChIJn-xOVOFN6oAR1e32WpFIDyY,IHOP,35.3542633,-119.3313416,"9M39+PF Bakersfield, CA, USA",4.0,928,1
ChIJzekhtZ3-6oARsatM1_4iIB0,Little Caesars Pizza,35.60134499999999,-119.35484,"JJ2W+G3 Wasco, CA, USA",3.9,116,1
ChIJf93UDJX-6oARtzm-JyETD94,Circle K,35.58730960000001,-119.3496218,"HMP2+W5 Wasco, CA, USA",3.5,77,1
ChIJhXeLmqH-6oARqyC4XoPshzs,Denny's,35.6020079,-119.3461017,"JM23+RH Wasco, CA, USA",3.8,595,1
ChIJE1XAkyJT6oAR0lAFvfuWOr4,Popeyes Louisiana Kitchen,35.4008754,-119.3961343,"CJ23+9G Buttonwillow, CA, USA",3.9,120,1
ChIJL7DBkiJT6oAR7hg1M_eHC7Y,Taco Bell,35.4008209,-119.3960685,"CJ23+8H Buttonwillow, CA, USA",2.8,87,1
ChIJrzBvM500mocR5Zu0a9YtsiU,Subway,41.2130016,-98.4509874,"6G7X+6J Saint Paul, NE, USA",4.1,76,1
ChIJ8aXrrPyImocRn1tvQLYPW8c,Subway,41.6910923,-97.99786,"M2R2+CV Albion, NE, USA",3.4,67,1
ChIJteZAyXVtmocRl10mQQm7RcM,Subway,41.35807089999999,-97.9770621,"925F+65 Fullerton, NE, USA",4.2,54,1
ChIJY3W5GKYbmocR2JqgPieaGHk,Subway,41.1109055,-98.0093648,"4X6R+97 Central City, NE, USA",4.2,133,1
ChIJ42PRa6gbmocRi-JtoC7cmKw,Dairy Queen Grill & Chill,41.1143445,-98.0048657,"4X7W+P3 Central City, NE, USA",4.1,342,1
ChIJX6hdFnJtmocR08j1b9bRyPU,Casey's,41.35613300000001,-97.9759244,"924F+FJ Fullerton, NE, USA",4.6,20,1
ChIJLbN5q2IzmocRbCHsK6XyeVA,Runza Restaurant,41.21110570000001,-98.4518558,"6G6X+C7 Saint Paul, NE, USA",4.0,231,1
ChIJfYtQd6JomocRKofW59mIy4k,The New Frontier Saloon & Restaurant,41.4727706,-98.0681552,"FWFJ+4P Belgrade, NE, USA",4.5,85,2
ChIJt0MpgZ40mocR8xnBEjVwFrg,Sweet Shoppe,41.213167,-98.45713420000001,"6G7V+74 Saint Paul, NE, USA",4.6,137,1
ChIJj-1rAQcbmocRtZPis91B_LE,Prairie Creek Vineyard & Winery,41.1159068,-98.0005929,"4X8X+9Q Central City, NE, USA",4.8,127,2
ChIJScwRt6UbmocRoyBxTMO87cY,Taco John's,41.1107348,-98.0099196,"4X6R+72 Central City, NE, USA",3.9,153,1
ChIJI7Am5hobmocRc-ljQ9bHtqk,Mom & Paup Family Restaurant,41.11568010000001,-97.990257,"4285+7V Central City, NE, USA",4.4,125,1
ChIJ36zG6zIZTFMRASTuBEp1_q8,Subway,44.5173405,-109.05447959999998,"GW8W+W6 Cody, WY, USA",4.0,100,1
ChIJUUGAWDEfTFMRz54pvJOnYzg,Subway,44.5181293,-109.0888684,"GW96+7F Cody, WY, USA",3.8,33,1
ChIJp6Zjuc8eTFMRmm8NC8bQWjg,Shiki,44.5258773,-109.0597116,"GWGR+94 Cody, WY, USA",4.2,186,2
ChIJPbcGEiofTFMRhKFoPIx0WEM,Dairy Queen,44.5194956,-109.0722898,"GW9H+Q3 Cody, WY, USA",4.2,447,1
ChIJD4pJDNoeTFMRBInbd1xVMPU,Taco John's,44.5145795,-109.0528715,"GW7W+RV Cody, WY, USA",3.8,275,1
ChIJ-05BbNAeTFMR8EgQ6hSg7y4,Annie's Soda Saloon,44.525913,-109.063745,"GWGP+9G Cody, WY, USA",4.2,253,2
ChIJs3NFDLseTFMRDUB8k_AExiE,El Vaquero Mexican Restaurant,44.53374520000001,-109.0425769,"GXM4+FX Cody, WY, USA",4.5,206,2
ChIJi_1tk88eTFMRnVQT8OyklPo,Gasthaus Cardi,44.5263085,-109.0605024,"GWGQ+GQ Cody, WY, USA",4.0,196,2
ChIJLfAYps8eTFMRwN-3RfSPsU4,Wendy's,44.5257841,-109.0586306,"GWGR+8G Cody, WY, USA",3.8,651,1
ChIJwy6UswOlpoARmYPla0hWfxk,Pizza Factory,40.6376271,-116.9404537,"J3Q5+3R Battle Mountain, NV, USA",3.7,37,2
ChIJoyrWIBulpoARbqH1rKxQiqw,JP Quick Mart Discount Liquor - Port of Subs,40.6378504,-116.9423123,"J3Q5+43 Battle Mountain, NV, USA",3.7,85,1
ChIJLUNjxvykpoARugu1lQWappI,Owl Club Casino & Restaurant,40.6414608,-116.9342599,"J3R8+H7 Battle Mountain, NV, USA",4.2,438,2
ChIJoWDkjPukpoARo_deOn-rLpk,El Aguila Real,40.640357,-116.932627,"J3R8+4W Battle Mountain, NV, USA",4.5,388,2
ChIJWYHiIQSlpoARu2ddebF1LOk,HideAway Restaurant & Bar,40.636988,-116.941497,"J3P5+QC Battle Mountain, NV, USA",4.5,166,2
ChIJwR4d2lukpoARidEPl3bS_Mo,Mama's Pizza & Deli,40.6372785,-116.9290122,"J3PC+W9 Battle Mountain, NV, USA",4.5,195,2
ChIJD-HNJxqlpoARF9Sr-lOn5V4,McDonald's,40.63765780000001,-116.9447697,"J3Q4+33 Battle Mountain, NV, USA",3.0,629,1
ChIJoYmvyf-lpoAR3FilmXWgjyA,Subway,40.6379715,-116.93999440000002,"J3Q6+52 Battle Mountain, NV, USA",3.9,19,1
ChIJmX_mQB-lpoARDLD0FD06Mks,Broadway Deli,40.64836070000001,-116.9435101,"J3X4+8H Battle Mountain, NV, USA",4.1,180,2
ChIJx65zPlI674gRGMFKYjDqgN0,Texas Roadhouse,30.181520000000006,-82.68806500000002,"58J6+JQ Lake City, FL, USA",4.5,3264,2
ChIJzy84FlE674gR0sP5uIe9MSg,Ruby Tuesday,30.178146,-82.684687,"58H8+74 Lake City, FL, USA",4.2,992,2
ChIJ9Vkt2tU774gRWZaAtH6cYg0,Subway,30.1897044,-82.64708590000002,"59Q3+V5 Lake City, FL, USA",3.7,76,1
ChIJnTrNzmDz5YgRnXNaGNKptpg,Subway,30.2654197,-82.1242298,"7V8G+58 Macclenny, FL, USA",3.9,65,1
ChIJzSfArqj05YgRAyxHXcY9Y0g,Little Caesars Pizza,30.2802708,-82.13273149999998,"7VJ8+4W Macclenny, FL, USA",3.7,276,1
ChIJZTtaVRHz5YgRSEpgoZTPLkc,Subway,30.262711600000006,-82.1087969,"7V7R+3F Macclenny, FL, USA",3.9,74,1
ChIJ9Vkt2tU774gRvT0bDSkGeL4,Subway,30.1476516,-82.6355056,"49X7+3Q Lake City, FL, USA",3.9,21,1
ChIJA5ag0Es674gRPixgA28W8aM,Starbucks,30.179768,-82.673115,"58HG+WQ Lake City, FL, USA",3.9,840,2
ChIJobQzyT2T5YgRCt0C1Htq7wM,Subway,30.283961600000005,-81.98388340000002,"72M8+HC Baldwin, FL, USA",4.0,139,1
ChIJdSR1K6g174gRv3BcG0ywqkU,Subway,30.1099742,-82.65968079999998,"485R+X4 Lake City, FL, USA",4.0,184,1
ChIJBcUmOtlT74gRS-ZBfjjLsMs,Subway,30.0238479,-82.3297328,"2MFC+G4 Lake Butler, FL, USA",4.1,151,1
ChIJJzlfrvg674gRhTffzJad54I,Waffle House,30.179846500000004,-82.69211229999998,"58H5+W5 Lake City, FL, USA",4.2,631,1
ChIJ4dNDzk0674gR0W8I6yec_LA,Papa John's Pizza,30.180472699999992,-82.678372,"58JC+5M Lake City, FL, USA",3.7,156,1
ChIJCx72ofg674gRFXSjNHZvQr8,Bob Evans,30.178997,-82.6919018,"58H5+H6 Lake City, FL, USA",4.1,1242,2
ChIJU5oEQj_i7ogR3noXSSr_eag,Subway,30.450516,-82.932238,"F329+64 Jasper, FL, USA",3.4,37,1
ChIJ5XgjjXg574gRUVhnjWbj_2g,Little Caesars Pizza,30.184683000000003,-82.64088000000002,"59M5+VJ Lake City, FL, USA",4.0,291,1
ChIJ6_t7zFY674gRiO7kK7AseeY,Cracker Barrel Old Country Store,30.178153,-82.68627109999998,"58H7+7F Lake City, FL, USA",4.3,3523,2
ChIJSQ5iigE574gRS4JB4v72mo0,Subway,30.17838449999999,-82.67553149999998,"58HF+9Q Lake City, FL, USA",4.4,118,1
ChIJOQhlGEg674gRhe4SU507a2w,Little Caesars Pizza,30.174349,-82.67063,"58FH+PP Lake City, FL, USA",4.3,366,1
ChIJpRedS_sn74gRHd7-xnCk20I,Yum's,30.1811185,-82.6648615,"58JP+C3 Lake City, FL, USA",4.3,184,1
ChIJpYmbxgMRx1IRBybtOOi_YME,Subway,48.1193354,-96.1834312,"4R98+PJ Thief River Falls, MN, USA",3.8,137,1
ChIJNay0mu0Qx1IRrAuMukHugSE,Subway,48.11230379999999,-96.1498965,"4V62+W2 Thief River Falls, MN, USA",2.7,22,1
ChIJsUrJY5sRx1IRrSt5OWpBMB0,Las Ranitas Mexican Restaurant,48.1095857,-96.1490619,"4V52+R9 Thief River Falls, MN, USA",4.4,677,2
ChIJjQCwswglx1IRgACHVn4km-k,Hobo Haus Bar & Grill,48.356309,-96.328808,"9M4C+GF Newfolden, MN, USA",4.5,156,2
ChIJr0yzjHjqxlIRj0dWMcy_3zA,Mick's of Warren,48.1985388,-96.7708729,"56XH+CM Warren, MN, USA",4.5,139,2
ChIJrX4fmBoRx1IR6VEncjJVJgA,Biff's Kitchen,48.1247008,-96.177115,"4RFF+V5 Thief River Falls, MN, USA",4.4,339,1
ChIJ1cEytKoRx1IRBbOqVRqx0Co,Dairy Queen Grill & Chill,48.11175579999999,-96.1850794,"4R67+PX Thief River Falls, MN, USA",4.1,345,1
ChIJr2QyoAcRx1IRBRLaSesvnsc,Caribou Coffee,48.1147208,-96.1771535,"4R7F+V4 Thief River Falls, MN, USA",4.0,40,2
ChIJu4iueZ4Rx1IRvnpTtMCBvRE,The Hive Bar & Grill,48.1122238,-96.1558318,"4R6V+VM Thief River Falls, MN, USA",4.2,416,2
ChIJyRSZq4QRx1IR8n_8J2BSce4,Papa Murphy's | Take 'N' Bake Pizza,48.1097557,-96.1492675,"4V52+W7 Thief River Falls, MN, USA",4.2,85,1
ChIJNTBrwwURx1IRq5IODNMhxrI,China King Restaurant,48.119007,-96.177983,"4R9C+JR Thief River Falls, MN, USA",4.3,164,2
ChIJk78tLCzxxlIR991kx4-7wm4,One N' Only,47.9730876,-96.6396639,"X9F6+64 Euclid, MN, USA",4.7,149,2
ChIJJ4Cn8wMRx1IRf2FnzGQyoxU,Rusty Nail Bar & Grill,48.1194284,-96.1819143,"4R99+Q6 Thief River Falls, MN, USA",4.1,180,2
ChIJNXHFyAMRx1IRwBLLczxGdug,Arby's,48.1195153,-96.1842769,"4R98+R7 Thief River Falls, MN, USA",3.7,412,1
ChIJGUhaI1AQx1IRsRAsqKoUa90,Black Cat Sports Bar & Grill,48.1044444,-96.1913889,"4R35+QC Thief River Falls, MN, USA",4.3,469,2
ChIJSeIynZwRx1IRBu-yXYqNdPg,Pizza Hut,48.1099448,-96.1507854,"4R5X+XM Thief River Falls, MN, USA",3.5,253,1
ChIJFUN4Of8Qx1IRqfA0DzzB2qk,Domino's Pizza,48.11855569999999,-96.19149190000002,"4R95+CC Thief River Falls, MN, USA",4.1,180,1
ChIJ4aamribXLYYRhqZRL5FwxQE,Subway,33.138667100000006,-91.9540866,"42QW+F9 Crossett, AR, USA",4.1,123,1
ChIJBffuaYIQMoYRR3iVmXDO1Ps,Applebee's Grill + Bar,33.2317231,-92.66512,"68JM+MX El Dorado, AR, USA",3.5,466,2
ChIJ37sIkIMQMoYRyZca8IZ5HL8,Subway,33.236277,-92.665911,"68PM+GJ El Dorado, AR, USA",4.1,192,1
ChIJNxC6eoQQMoYRtuI2VHlOvXM,Larry's Pizza,33.2369242,-92.6659924,"68PM+QJ El Dorado, AR, USA",4.2,376,1
ChIJP9oxJewaMoYRIJj0Ja2niFE,Antiguas Grill,33.2362495,-92.6667497,"68PM+F8 El Dorado, AR, USA",4.3,449,2
ChIJO_Gg_ngaMoYRb2dDeHr4lcM,Papa Poblanos Mexican Cafe,33.2286132,-92.6659542,"68HM+CJ El Dorado, AR, USA",4.0,229,2
ChIJGWQCCmEaMoYRJ1cRoTkq2zM,Main Street Pizza,33.2119636,-92.6610336,"686Q+QH El Dorado, AR, USA",4.3,295,1
ChIJ-40rRsgZMoYRvFQZfeUtNI0,Fernando’s Mexican Grill,33.208372999999995,-92.73152979999999,"6759+89 El Dorado, AR, USA",4.3,201,2
ChIJzTCzo4UQMoYRDX4QoyVU8EA,Buffet Palace,33.24216049999999,-92.6660333,"68RM+VH El Dorado, AR, USA",4.2,684,2
ChIJh0msD-caMoYRFpRjpTaJf8Y,Goodcents Deli Fresh Subs,33.197975,-92.6426,"59X4+5X El Dorado, AR, USA",4.3,94,1
ChIJnwfzfLkaMoYRHs_nzBuoJKI,Subway,33.2141663,-92.6328467,"6978+MV El Dorado, AR, USA",4.1,183,1
ChIJRVrrAHsaMoYRFHtUgqMnWEY,Hachi Hachi,33.2216694,-92.6661694,"68CM+MG El Dorado, AR, USA",4.7,76,1
ChIJcal4jngaMoYRwQbLu3qWB1Y,Popeyes Louisiana Kitchen,33.229325300000006,-92.6652552,"68HM+PV El Dorado, AR, USA",3.8,197,1
ChIJy7vRAoMQMoYR4vpnyK4Hy7s,Dairy Queen Grill & Chill,33.233401300000004,-92.6652254,"68MM+9W El Dorado, AR, USA",4.3,395,1
ChIJ_d2dvoMQMoYRA_j73QnrIT4,Chicken Express,33.23449780000001,-92.6651356,"68MM+QW El Dorado, AR, USA",4.3,210,1
ChIJdR03V4QQMoYRfezSmDhTjUI,Little Caesars Pizza,33.23818,-92.66618,"68QM+7G El Dorado, AR, USA",4.0,176,1
ChIJryiREbghU4YRZ83ucfbhmUE,Texas Roadhouse,33.88018,-98.5395017,"VFJ6+35 Wichita Falls, TX, USA",4.5,2544,2
ChIJkanZSpUhU4YRoYdlQG2-inM,Cheddar's Scratch Kitchen,33.8789404,-98.5515444,"VCHX+H9 Wichita Falls, TX, USA",4.3,1605,2
ChIJCW0I9mIgU4YRyenvwYtZRhM,Subway,33.9024948,-98.4979003,"WG22+XR Wichita Falls, TX, USA",4.0,164,1
ChIJzaIaRionU4YRqsy1Ux5SPXU,Subway,33.9506008,-98.5291577,"XF2C+68 Wichita Falls, TX, USA",3.2,30,1
ChIJtbPrGzAgU4YRD04MCFHacu0,Pelican's,33.8700864,-98.5171208,"VFCM+25 Wichita Falls, TX, USA",4.5,399,3
ChIJnTsxT-0hU4YR5JwAaDS0fDk,Subway,33.8771863,-98.5604001,"VCGQ+VR Wichita Falls, TX, USA",4.2,80,1
ChIJqTiOHNYmU4YRUCC2psOA0FE,Subway,33.95285,-98.528435,"XF3C+4J Wichita Falls, TX, USA",4.0,102,1
ChIJkdvITjonU4YRTE1JUrQ9ajk,Subway,33.96081559999999,-98.5130995,"XF6P+8Q Wichita Falls, TX, USA",4.2,101,1
ChIJg363LQIhU4YRE2nThiIolx8,Subway,33.9077869,-98.5305412,"WF59+4Q Wichita Falls, TX, USA",4.3,109,1
ChIJm41x884hU4YRTStTtK1BOsM,Olive Garden Italian Restaurant,33.87184970000001,-98.5354108,"VFC7+PR Wichita Falls, TX, USA",4.3,1342,2
ChIJbR9yPTo7U4YRspTkAIXp0Ws,Subway,33.963457700000006,-98.6902594,"X875+9V Iowa Park, TX, USA",4.2,158,1
ChIJnYU8btghU4YRtyEXsOzzYeE,Chuck E. Cheese,33.856886,-98.5413698,"VF45+QF Wichita Falls, TX, USA",4.1,511,2
ChIJt6YDkNYhU4YRspEYEY1zQDU,Samurai of Tokyo,33.8610546,-98.534788,"VF68+C3 Wichita Falls, TX, USA",4.5,1076,2
ChIJU4QBSS0gU4YRR1lipHvRJ-Q,Schlotzsky's,33.8723373,-98.53598780000002,"VFC7+WJ Wichita Falls, TX, USA",4.1,364,1
ChIJNUI5sbQhU4YRqW8Nb91OF-k,Starbucks,33.884440999999995,-98.52870899999999,"VFMC+QG Wichita Falls, TX, USA",4.1,924,2
ChIJNWUM7H8gU4YRFxsyfy0jcy4,Branding Iron Restaurant & Catering,33.903803999999994,-98.485776,"WG37+GM Wichita Falls, TX, USA",4.4,573,2
ChIJV38U9o2jU4YRE2X9IGFqiWA,Subway,33.370428000000004,-98.7599104,"96CR+52 Olney, TX, USA",4.1,95,1
ChIJzQ3pqNEhU4YRALhQSbYfoXs,Denny's,33.865605,-98.5354328,"VF87+6R Wichita Falls, TX, USA",3.8,830,1
ChIJYwU-TfEfU4YRPgbQMX1qmvU,Subway,33.8506169,-98.50162600000002,"VF2X+68 Wichita Falls, TX, USA",3.6,14,1
ChIJY0iwZ2hy74cRgdzlFNrJ9_o,Subway,41.7464249,-92.727069,"P7WF+H5 Grinnell, IA, USA",4.2,77,1
ChIJFf-3ylis5YcRb1jIjVgJ_5M,Ox Yoke Inn,41.7997905,-91.87097490000001,"Q4XH+WJ Amana, IA, USA",4.5,1738,2
ChIJxXYoLWCd5YcR6K2aQx5EuKg,Subway,41.896688,-92.2803031,"VPW9+MV Belle Plaine, IA, USA",4.1,57,1
ChIJmzIxwLpt74cR0u6iUQ8aFKQ,Subway,41.70042350000001,-92.7262964,"P72F+5F Grinnell, IA, USA",3.9,142,1
ChIJmWGp7-8W5YcRfTVsorg1JF0,Subway,42.1681164,-92.038003,"5X96+6Q Vinton, IA, USA",3.9,116,1
ChIJuU29Artg74cRungLrv2XyGg,Subway,41.5856884,-92.5264632,"HFPF+7C Montezuma, IA, USA",3.7,58,1
ChIJ5yuDqxal74cRnlyPfXketnQ,Subway,42.0161877,-92.9129604,"238P+FR Marshalltown, IA, USA",3.8,173,1
ChIJj6x2p0aZ74cR-QF6e2MzlhQ,Rube's Steakhouse & Lounge,41.981259,-92.713529,"X7JP+GH Montour, IA, USA",4.7,556,3
ChIJDZUfFmly74cRLS5wdio5ZTE,Pagliai's Grinnell,41.744431,-92.724811,"P7VG+Q3 Grinnell, IA, USA",4.6,601,2
ChIJw2d3wTWikIcRjKriGO0jCd8,Subway,41.9868924,-92.579764,"XCPC+Q3 Toledo, IA, USA",4.1,88,1
ChIJT2sb_guI5YcRNwvqhZaT6oU,Casey's,41.7305892,-92.4459131,"PHJ3+6J Brooklyn, IA, USA",3.6,34,1
ChIJfbe83Gi65YcRU2nEcmR2Bsk,Subway,41.691596,-92.0046374,"MXRW+J4 Williamsburg, IA, USA",3.2,116,1
ChIJictej2hy74cRy0CxYSnuZ_g,Hardee's,41.7454384,-92.7277432,"P7WC+5W Grinnell, IA, USA",3.6,330,1
ChIJsy1ihxNj5YcRbyB4o0-bKwo,Czech Point Restaurant & Pub,42.0790537,-92.4043241,"3HHW+J7 Clutier, IA, USA",3.7,21,1
ChIJ33_yCBal74cRWgdzRewzQEk,Dairy Queen,42.01989590000001,-92.9133759,"239P+XJ Marshalltown, IA, USA",4.3,269,1
ChIJzYMI44Bo5YcRhSfWi6ut9ug,Casey's,42.1727333,-92.299561,"5PF2+35 Dysart, IA, USA",2.7,18,1
ChIJ26dqF5utcYcRiGConBM66vs,Subway,41.13734229999999,-102.9767501,"42PF+W7 Sidney, NE, USA",4.3,98,1
ChIJp5KCAtCtcYcRuUcgLxUBweg,Subway,41.1175084,-102.9520726,"429X+25 Sidney, NE, USA",4.3,141,1
ChIJA9_kvenQb4cRlskHlXAJxtA,Subway,41.2359273,-103.6619518,"68PQ+96 Kimball, NE, USA",3.9,86,1
ChIJOTP8LtCtcYcRlQEMeK40efA,Godfather's Pizza,41.1157834,-102.9718872,"428H+86 Sidney, NE, USA",4.0,28,2
ChIJQUUtqNGtcYcRgZfPzuiHk7w,Applebee's Grill + Bar,41.1143701,-102.9520953,"427X+P5 Sidney, NE, USA",3.8,724,2
ChIJ4wHTQQCtcYcR5UKgZ1edGb4,McDonald's,41.1172741,-102.9504118,"428X+WR Sidney, NE, USA",3.1,656,1
ChIJNxb5zdOtcYcR14lJC6by8Ko,Three Margaritas,41.1154202,-102.9480991,"4382+5Q Sidney, NE, USA",4.4,631,2
ChIJkc671-vQb4cRKzCSbbcokyk,Beer & Loathing,41.2368,-103.663203,"68PP+PP Kimball, NE, USA",4.6,164,2
ChIJIVpvwX-tcYcR9zmIhsZjCKE,China Garden Restaurant,41.14428839999999,-102.9886989,"42V6+PG Sidney, NE, USA",3.9,41,2
ChIJtdjCR4CycYcR12VrGjUXNKQ,Dude's Steakhouse & Brandin' Iron Bar,41.1446338,-102.9912515,"42V5+VF Sidney, NE, USA",4.2,332,2
ChIJEzvYJtCtcYcR4hL9V8jJD_0,Pizza Hut,41.11752669999999,-102.9561553,"429V+2G Sidney, NE, USA",3.7,237,1
ChIJDz4A79GtcYcR_fIHIExpd1E,Runza Restaurant,41.1171868,-102.9479791,"4382+VR Sidney, NE, USA",4.2,505,1
ChIJ11qWO4CycYcRwRHemyraE7Q,Oya Grill,41.1441565,-102.9908073,"42V5+MM Sidney, NE, USA",4.3,127,1
ChIJbfiag8Kp7ogRmmxbFMfg4Hc,Subway,30.0525942,-83.1713446,"3R3H+2F Mayo, FL, USA",4.2,141,1
ChIJ-3cdDZ_J6IgRdUlcUEaIa6M,Subway,29.8378058,-82.60195350000002,"R9QX+46 High Springs, FL, USA",4.0,111,1
ChIJ63gGCKXJ6IgRRB8m7mFSPQQ,Great Outdoors Restaurant,29.826675800000004,-82.59689770000001,"RCG3+M6 High Springs, FL, USA",4.4,2039,2
ChIJp0d5BMHA6IgRiJDnYT0Tx20,Subway,29.6510507,-82.59939770000003,"MC22+C6 Newberry, FL, USA",3.9,40,1
ChIJ_blL-x3B6IgRwfXqP0KUx3g,Hardee's,29.64614959999999,-82.6056715,"J9WV+FP Newberry, FL, USA",3.5,569,1
ChIJr2UQoOjd6IgROxs058-BrXs,Subway,29.6129695,-82.8102559,"J57Q+5V Trenton, FL, USA",3.8,144,1
ChIJw6qRAyni6IgRNY3O1dhDTXs,Subway,29.5014453,-82.87204399999997,"G42H+H5 Chiefland, FL, USA",4.0,98,1
ChIJW21vSSzi6IgRaW2bxuN4dxU,Bar-B-Q Bill's,29.496842,-82.86770200000002,"F4WJ+PW Chiefland, FL, USA",4.3,1467,1
ChIJw6qRAyni6IgRClAbdP3XtEM,Little Caesars Pizza,29.4997727,-82.8723065,"F4XH+W3 Chiefland, FL, USA",3.8,184,1
ChIJSQw8wrcq6YgRo4xvvKWxpts,China House,29.95893,-82.928843,"X35C+HF Branford, FL, USA",4.4,211,2
ChIJ3yhIMs3j6IgRYajxPNBC8hg,BubbaQue's BBQ - Chiefland,29.4912004,-82.8641188,"F4RP+F9 Chiefland, FL, USA",4.2,316,2
ChIJD6bnQ6I96YgRMrmgL7ywbNA,Taste of Dixie Diner,29.632458000000003,-83.12212099999998,"JVJH+X5 Cross City, FL, USA",4.3,671,1
ChIJWcaqrHgY6YgRP9_8y-IGPD0,Subway,29.6018947,-82.9802218,"J229+QW Old Town, FL, USA",3.9,74,1
ChIJ1fQgjTTY6IgRDvLKSFvyDpw,Burger Spot,29.763700399999994,-82.86592859999998,"Q47M+FJ Bell, FL, USA",4.1,237,1
ChIJEfFtvbs96YgRcXJQXYNtsSk,Dairy Queen Grill & Chill,29.63515659999999,-83.12461180000003,"JVPG+35 Cross City, FL, USA",3.8,473,1
ChIJsSNacp8Y6YgRnTE0r92UUv4,Hungry Howie's Pizza,29.6018759,-82.9801796,"J229+QW Old Town, FL, USA",3.8,178,1
ChIJxWPKeXEf6YgRY_y08rxWXxw,Momma's Dixie Kitchen,29.5852295,-82.95800240000001,"H2PR+3Q Old Town, FL, USA",4.5,346,1
ChIJkRzsIV0aU1MRQ3d-6eePJIY,Teton Tiger Restaurant and Bar,43.4812441,-110.7615258,"F6JQ+F9 Jackson, WY, USA",4.2,307,2
ChIJyTM0YZkQU1MRq3hKiqKMh6E,Subway,43.46925299999999,-110.7913848,"F695+PC Jackson, WY, USA",3.5,147,1
ChIJBXlZx9cFU1MRWF-HHQlw6eQ,Casper Restaurant,43.59722379999999,-110.8391212,"H5W6+V9 Teton Village, WY, USA",3.9,118,2
ChIJk-HQ-GcaU1MRRBviAVNLgWU,Silver Dollar Bar & Grill,43.4797235,-110.7633152,"F6HP+VM Jackson, WY, USA",4.3,900,2
ChIJpXlZz0IaU1MRJEYPILCo-Bc,Snake River Grill,43.4792525,-110.76105359999998,"F6HQ+PH Jackson, WY, USA",4.5,394,4
ChIJF4bVMdcFU1MR5LFSaqU8UJw,Mangy Moose Steakhouse and Saloon,43.586467,-110.82771,"H5PC+HW Teton Village, WY, USA",4.0,1020,2
ChIJ5b3HFNYFU1MRINrnfuc-kNQ,Westbank Grill,43.589247,-110.826917,"H5QF+M6 Teton Village, WY, USA",4.5,86,3
ChIJb7NHP10aU1MR48VCpuuaHsY,The Bunnery Bakery & Restaurant,43.4810038,-110.7622535,"F6JQ+C3 Jackson, WY, USA",4.3,1037,2
ChIJVYj482pQU1MRDUyIDLvZ4lA,Subway,43.170333,-111.0173414,"5XCM+43 Alpine, WY, USA",3.9,88,1
ChIJnRApqEIaU1MROznbW5QIyL0,Pinky G's Pizzeria | Jackson Hole,43.4792583,-110.76309170000002,"F6HP+PQ Jackson, WY, USA",4.2,1529,2
ChIJAbGhEtcFU1MRWhNIERmdTs0,Il Villaggio Osteria,43.5868073,-110.8289529,"H5PC+PC Teton Village, WY, USA",4.1,181,3
ChIJqWbVGO0PU1MRwZKRqLIUPLY,Teton Pines,43.528489,-110.845428,"G5H3+9R Wilson, WY, USA",4.5,71,2
ChIJ00lNgw0XU1MRAZ-s8rczR8w,The Bird,43.4201269,-110.7769679,"C6CF+36 Jackson, WY, USA",4.5,562,2
ChIJg01QxhIXU1MRfj67DlJhaj0,Persephone Bakery,43.479763,-110.760007,"F6HQ+WX Jackson, WY, USA",4.6,982,2
ChIJd-Hfu051U1MRcL4fxrhcZgY,Subway,43.60333320000001,-111.1108658,"JV3Q+8M Victor, ID, USA",3.5,59,1
ChIJl7MqANThk1QRUWoY3maL8W4,The Shire Bar & Bistro,46.66457370000001,-122.9706039,"M27H+RQ Chehalis, WA, USA",4.5,145,2
ChIJxTHYoYRfkVQRrepG1uopypg,McDonald's,46.679025,-122.9781597,"M2HC+JP Chehalis, WA, USA",3.6,118,1
ChIJD4rRMtVfkVQRI49mOc5an-M,McMenamins Olympic Club,46.7167549,-122.9539337,"P28W+PC Centralia, WA, USA",4.5,1344,2
ChIJq4pPzWZgkVQRoZq-cLElgzg,Country Cousin Restaurant,46.7285848,-122.9792992,"P2HC+C7 Centralia, WA, USA",4.3,2446,2
ChIJbfsM4E8RkVQR06zeEbjGDts,Subway,46.9439165,-122.5517553,"WCVX+H7 Roy, WA, USA",4.1,76,1
ChIJU3W5K6R1kVQR1JsY97I8Wkw,Chuck E. Cheese,47.04155249999999,-122.9327655,"23R8+JV Olympia, WA, USA",4.1,618,2
ChIJq2u_KGdgkVQRrxEtX6V-Q9c,Subway,46.7289223,-122.98031129999998,"P2H9+HV Centralia, WA, USA",3.7,192,1
ChIJT4e6SWPik1QRdMPO2twEdj8,Subway,46.60731789999999,-122.9062765,"J34V+WF Chehalis, WA, USA",3.8,276,1
ChIJU3W5K6R1kVQRjInI5VyardE,Panda Express,47.0420963,-122.9341935,"23R8+R8 Olympia, WA, USA",3.8,152,1
ChIJX91U4-Xhk1QRQran05Nj29U,Subway,46.6469893,-122.9560176,"J2WV+QH Chehalis, WA, USA",3.3,114,1
ChIJhfOanT1vkVQRMcMBm4-4cQw,Subway,46.8596369,-122.8452512,"V553+VV Tenino, WA, USA",4.3,84,1
ChIJQ3uurnEjkVQRshUKr2sSABY,Subway,46.8665847,-122.26336770000002,"VP8P+JM Eatonville, WA, USA",4.2,170,1
ChIJf88t7IdfkVQRO184HZpWyfg,Subway,46.6771758,-122.9804827,"M2G9+VR Chehalis, WA, USA",4.0,110,1
ChIJU3W5K6R1kVQRr9mCppo4nA4,Subway,47.0420151,-122.9342035,"23R8+R8 Olympia, WA, USA",3.9,59,1
ChIJaT9gF-wTkVQRs94eIHgfa-g,Subway,46.93448019999999,-122.5911807,"WCM5+QG Yelm, WA, USA",3.8,148,1
ChIJM-2GKBn9k1QRjyIivgDdy-A,Spiffy's Restaurant & Bakery,46.54689570000001,-122.8748327,"G4WG+Q3 Chehalis, WA, USA",3.9,1273,2
ChIJl9YDhzBzkVQR1rihqRLHflc,Subway,46.99626780000001,-122.8070767,"X5WV+G5 Lacey, WA, USA",4.2,148,1
ChIJ3Zjr7Kn6OIgRjbj_Sa5kg5E,Subway,40.26589170000001,-83.07354079999998,"7W8G+9H Delaware, OH, USA",3.9,21,1
ChIJBXTiKGX0OIgRdQr7zspAHPk,Sbarro,40.14562420000001,-82.98205759999998,"42W9+65 Columbus, OH, USA",3.2,39,1
ChIJIQ62hWMaOYgRs0u5NPIRPLo,Subway,40.5794448,-83.12700840000002,"HVHF+Q5 Marion, OH, USA",4.1,207,1
ChIJTbSyFK8aOYgRHC4xSkZzPeA,Subway,40.58360029999999,-83.08742840000002,"HWM7+C2 Marion, OH, USA",2.6,13,1
ChIJ91s9hGbEOIgRQq3CaIXbgD4,Benny's Pizza,40.2334267,-83.3526689,"6JMW+9W Marysville, OH, USA",4.6,1743,2
ChIJN0tY_7bAOYgRPS6BhmvcY2Y,Der Dutchman,40.6450916,-82.54258209999998,"JFW4+2X Bellville, OH, USA",4.3,2882,2
ChIJu6evcNr6OIgR6GZLQSNIGEw,Subway,40.2982885,-83.0681364,"7WXJ+8P Delaware, OH, USA",3.8,50,1
ChIJK056llrsOIgRJs7FYfxmqYw,The Morgan House,40.1543185,-83.1333556,"5V38+PM Dublin, OH, USA",4.5,436,2
ChIJ46_MooUQOYgRaHErh3zJDYg,Subway,40.60151339999999,-83.1292713,"JV2C+J7 Marion, OH, USA",4.2,149,1
ChIJfRB8Ba4aOYgRp-LXGddHzS4,Subway,40.58073359999999,-83.08490490000001,"HWJ8+72 Marion, OH, USA",4.3,229,1
ChIJcRjdcQqiOYgRS6MgDhKTDHU,Subway,40.736236700000006,-82.8020865,"P5PX+F5 Galion, OH, USA",4.0,129,1
ChIJlaZ3rLwaOYgRfhluleW7efw,Little Caesars Pizza,40.5806547,-83.095477,"HWJ3+7R Marion, OH, USA",3.6,496,1
ChIJF9wlvemoOYgRxmdu2ZumFY8,Subway,40.54894249999999,-82.84438990000002,"G5X4+H6 Mount Gilead, OH, USA",4.3,151,1
ChIJgYjW7HbfOIgRiegRFzxAC8Q,Subway,40.4266703,-83.29686980000002,"CPG3+M7 Richwood, OH, USA",4.2,115,1
ChIJme9Wrfn6OIgRE-o9SdnuK3w,Subway,40.29331179999999,-83.0373657,"7XV7+83 Delaware, OH, USA",4.2,63,1
ChIJeTbxyCT4OIgR8JoLcVkU44A,Cracker Barrel Old Country Store,40.26615779999999,-82.93561849999998,"7387+FQ Sunbury, OH, USA",4.3,3023,2
ChIJY4_bElz0OIgRoFXLeo7uNlo,Bonefish Grill,40.14311,-82.96708389999998,"42VM+65 Columbus, OH, USA",4.5,1176,2
ChIJdevTBNjkOIgR2u4BZD-FrYE,Subway,40.30710670000001,-83.08896740000002,"8W46+RC Delaware, OH, USA",3.7,97,1
ChIJFRBYXwsaOYgR2IEG08kX0ls,Subway,40.58811289999999,-83.14428020000003,"HVQ4+67 Marion, OH, USA",4.2,326,1
ChIJdz1WH8N4bIcR1Fznp1NxWwc,Rodizio Grill - Denver - Dine-In Open,39.7540021,-104.9985353,"Q232+JH Denver, CO, USA",4.5,1927,3
ChIJm5csC9p4bIcRDhpgwqiuxNc,Panzano,39.7477933,-104.9928419,"P2X4+4V Denver, CO, USA",4.5,1098,3
ChIJxXYVUex4bIcRTFk4-JexDO8,Root Down,39.7630738,-105.00560159999998,"QX7V+6Q Denver, CO, USA",4.6,2235,3
ChIJY5watdZ4bIcRIDAE-njFBdA,Maggiano's Little Italy,39.7430645,-104.9903871,"P2V5+6R Denver, CO, USA",4.5,2387,2
ChIJG7kMFcV4bIcRBjA7KQQb03s,Osteria Marco,39.74820279999999,-104.999232,"P2X2+78 Denver, CO, USA",4.5,892,2
ChIJIzsCgJZ-bIcRJ8wt6D2vSoQ,Cherry Cricket - Cherry Creek,39.71955910000001,-104.9563925,"P29V+RC Denver, CO, USA",4.5,3792,2
ChIJ27iX0pR4bIcRJt9bqBfafdU,Ale House Denver,39.7586263,-105.0092171,"QX5R+F8 Denver, CO, USA",4.3,670,2
ChIJF4sShZR4bIcRZCQ8ZRvoh_c,Linger,39.75952349999999,-105.011411,"QX5Q+RC Denver, CO, USA",4.5,3506,3
ChIJHY5jhNp4bIcR8ij0UT5PKRY,Rock Bottom Restaurant & Brewery,39.74751699999999,-104.994804,"P2X4+23 Denver, CO, USA",4.0,856,2
ChIJ7bj3tZN4bIcRwAQ9GQZpKgU,Highland Tap and Burger,39.76222339999999,-105.0133329,"QX6P+VM Denver, CO, USA",4.3,1378,2
ChIJ60MCidR1bIcRHtgH57PhGFQ,Boondocks Food & Fun: Northglenn,39.9035161,-104.98834840000002,"W236+CM Northglenn, CO, USA",4.1,3020,1
ChIJI8vB8Ct5bIcR40G-TvheRxE,Steuben's Uptown,39.7436142,-104.9803778,"P2V9+CR Denver, CO, USA",4.4,3707,2
ChIJVQdrOAd7bIcR9dioCUA5eNs,Texas de Brazil,39.783931,-104.89085,"Q4M5+HM Denver, CO, USA",4.6,2542,3
ChIJfQBbApiPO4cR_UbmaYLVV8c,Subway,36.7487886,-108.2017713,"PQXX+G7 Farmington, NM, USA",4.2,195,1
ChIJN8DkQGmPO4cRr6Cn8IIapuU,Little Caesars Pizza,36.747734,-108.17139,"PRXH+3C Farmington, NM, USA",3.6,444,1
ChIJT6F8Z4x2PIcRyLrNVHx26jc,Subway,36.82657620000001,-107.993152,"R2G4+JP Aztec, NM, USA",4.2,169,1
ChIJdfLer0ePO4cRobxEEOba6Eg,Subway,36.75396709999999,-108.1572285,"QR3V+H4 Farmington, NM, USA",4.2,167,1
ChIJg_nEjg95PIcRh6d3vIAs2-g,Subway,36.7115805,-107.9889044,"P266+JC Bloomfield, NM, USA",3.8,118,1
ChIJ4e5FkfyPO4cRoRf0EpsPrac,Subway,36.73204970000001,-108.2326798,"PQJ8+RW Farmington, NM, USA",4.4,206,1
ChIJ2w97G6ACPIcRjcRFjKOYS5A,Mongolian Grill,37.2318244,-107.8667636,"64JM+P7 Durango, CO, USA",4.2,646,2
ChIJa2KcdCGXO4cRKA84wsXRncw,Subway,36.74180629999999,-108.3532747,"PJRW+PM Kirtland, NM, USA",4.3,128,1
ChIJUyE02IqPO4cRtXBXLDHfjBg,Pizza Hut,36.7287359,-108.2130763,"PQHP+FQ Farmington, NM, USA",3.9,360,1
ChIJ2ySuy4mPO4cRvp1seGgchTY,Three Rivers Tap & Game Room,36.7288739,-108.2049235,"PQHW+G2 Farmington, NM, USA",4.2,142,2
ChIJL10Of_yPO4cRqA7ELFUI_E0,Blake's Lotaburger,36.7311903,-108.2317976,"PQJ9+F7 Farmington, NM, USA",4.2,890,1
ChIJaQbOeWmPO4cRDvf7ZaMcQXA,Pizza Hut,36.7484088,-108.1697278,"PRXJ+94 Farmington, NM, USA",3.7,348,1
ChIJRwDUYX2FO4cRUEKy2Q_p0dI,Blake's Lotaburger,36.7284179,-108.2004524,"PQHX+9R Farmington, NM, USA",4.1,853,1
ChIJxf8xiKECPIcR7YNI4Fl41es,Steamworks Brewing Company,37.2722778,-107.8800139,"74C9+WX Durango, CO, USA",4.5,3542,2
ChIJpX_PM-cjPIcRSf81586ZC4Y,Subway,37.2324594,-107.5957277,"6CJ3+XP Bayfield, CO, USA",3.6,53,1
ChIJfecuWdPo3YcRIek0JP-h4oU,Subway,39.7223057,-91.3964249,"PJC3+WC Hannibal, MO, USA",4.1,58,1
ChIJiRTLiJKY3YcRNCZeFQr-QY8,Subway,39.65746399999999,-91.72536459999999,"M74F+XV Monroe City, MO, USA",4.0,41,1
ChIJq32QGeDr3YcRTMMjyyNn334,Subway,39.7113193,-91.4430554,"PH64+GQ Hannibal, MO, USA",4.1,75,1
ChIJuwhm96yS3YcRhwHrEYDLU2I,Subway,39.80002169999999,-91.5225181,"RF2G+2X Palmyra, MO, USA",3.9,99,1
ChIJY3Ure9XK3YcRT-eEf9aeros,Subway,39.3077417,-91.4939843,"8G54+3C Vandalia, MO, USA",4.0,39,1
ChIJ8xhZ3w4Q3YcR9lsQclAi_3A,Subway,39.4766235,-92.0000156,"FXGX+JX Paris, MO, USA",4.1,39,1
ChIJW9Y0_jZs3YcREF3n1npN17o,Subway,39.69646470000001,-92.0371172,"MXW7+H5 Shelbina, MO, USA",4.3,82,1
ChIJrS0V7qL53IcR8U5_fGRjA5Y,Subway,39.1716413,-91.8896697,"54C6+M4 Mexico, MO, USA",4.2,97,1
ChIJQfLNSlb23YcRdHRuKgXbz8s,Tiramisu,39.93314959999999,-91.4118647,"WHMQ+77 Quincy, IL, USA",4.7,499,2
ChIJcwFwakbp3YcRo8DdjUtFRiE,Fiddlestiks Food & Spirits Company,39.71288120000001,-91.4328091,"PH78+5V Hannibal, MO, USA",4.4,1659,2
ChIJ1eOt4hnm3YcRCpaF_qIgfpg,The Brick Oven,39.7102547,-91.356636,"PJ6V+48 Hannibal, MO, USA",4.3,456,2
ChIJydYlZzCL3YcRBC_nanwsNgs,18 Wheeler Restaurant,39.91669299999999,-91.528047,"WF8C+MQ Taylor, MO, USA",4.0,596,2
ChIJfecuWdPo3YcRm4gcKUwvKyM,Mi Mexico Cafe,39.72334159999999,-91.3995834,"PJF2+85 Hannibal, MO, USA",4.3,332,1
ChIJm2vftcl_3ocRUYj5ajrcAm4,Subway,39.3350586,-91.1811264,"8RP9+2G Bowling Green, MO, USA",4.2,172,1
ChIJ28sc3Kv33YcRZC_UzyZDjEY,Subway,39.93533239999999,-91.400382,"WHPX+4R Quincy, IL, USA",4.4,202,1
ChIJa3VRqFPt3YcRNml9iYoWeno,Hardee's,39.8001877,-91.5182336,"RF2J+3P Palmyra, MO, USA",3.7,328,1
ChIJI_GiAtWx3YcR1PSTRgOmSyA,Casey's,39.4312789,-91.6734359,"C8JG+GJ Perry, MO, USA",3.4,10,1
ChIJBYMntwkQ3YcRvpB0Rq59HI4,Casey's,39.47222739999999,-92.0003381,"FXCX+VV Paris, MO, USA",3.9,11,1
ChIJRT-bdkds3YcRMsTdHFiUhcA,Casey's,39.69570949999999,-92.0401809,"MXW5+7W Shelbina, MO, USA",4.2,50,1
ChIJ4a3YEQ7WuIkRUeEKtjB2VCk,Seacrets,38.3745609,-75.07157070000002,"9WFH+R9 Ocean City, MD, USA",4.4,6779,2
ChIJlzc-nEG2uIkRI-eiJxxxIuo,Dogfish Head Brewings & Eats,38.7152015,-75.08716679999998,"PW87+34 Rehoboth Beach, DE, USA",4.5,1046,2
ChIJZ6PwtkwouYkR-hzvrFMsqi8,Mione's Pizza & Italian Restaurant,38.3384129,-75.10751390000001,"8VQR+9X Ocean City, MD, USA",4.5,495,2
ChIJGeUvQ-fQuIkRzIHUCL2wjoQ,Subway,38.4725712,-75.1042535,"FVFW+27 Selbyville, DE, USA",3.3,6,1
ChIJ34vFf5i3uIkRLQrg90pXsxY,Subway,38.7273195,-75.1319709,"PVG9+W6 Rehoboth Beach, DE, USA",3.1,12,1
ChIJ4aA2baspuYkRnTwfyKjmQv8,Harborside Bar & Grill,38.3267929,-75.10552729999998,"8VGV+PQ Ocean City, MD, USA",4.5,1722,2
ChIJc-SXUHLWuIkR7Sz02x9NxkE,Fager's Island,38.3829781,-75.0706575,"9WMH+5P Ocean City, MD, USA",4.4,2667,2
ChIJ-eNzAbEpuYkRBNjn_hs9KkI,Hooper's Crab House,38.33498469999999,-75.0987032,"8WM2+XG Ocean City, MD, USA",4.1,1874,2
ChIJW9BuJWm2uIkRlFRtMSff3ko,Blue Moon,38.71737779999999,-75.07973609999998,"PW8C+X4 Rehoboth Beach, DE, USA",4.5,314,3
ChIJ7eY0RtgnuYkRxlEfoEI3TEc,Subway,38.3399407,-75.1630022,"8RQP+XQ Berlin, MD, USA",3.1,11,1
ChIJbQVB2OgmuYkRMUAaDP9aS28,The Globe,38.3247753,-75.21945040000001,"8QFJ+W6 Berlin, MD, USA",4.6,519,2
ChIJuVyRtZe0uoARuVdYZUsVod8,Owl Club Bar and Steakhouse,39.51326810000001,-115.9607943,"G27Q+8M Eureka, NV, USA",4.1,117,2
ChIJm41zVbEUCocRb08T3eDxi10,Subway,38.472579,-100.9071517,"F3FV+24 Scott City, KS, USA",4.2,52,1
ChIJDbp1LoPYoIcRhedvhvVvO64,Pizza Plus,38.4534467,-99.9048268,"F33W+93 Ness City, KS, USA",4.4,76,2
ChIJCXMDhLMUCocR0xvBG51ce8w,Dairy Queen Grill & Chill,38.4744658,-100.9071473,"F3FV+Q4 Scott City, KS, USA",3.8,162,1
ChIJgXXt-7MUCocRxtPa3SDnTGM,Kangaroo Express,38.4731154,-100.9063782,"F3FV+6C Scott City, KS, USA",5.0,2,1
ChIJfSI7G7oUCocR2-8XJaSu6Iw,Sonic Drive-In,38.46428510000001,-100.9057791,"F37V+PM Scott City, KS, USA",3.6,244,1
ChIJJd_X1p1OdkARwCXHb6nrWIc,EL Dos De Oros,38.4525341,-99.9034165,"F33W+2J Ness City, KS, USA",4.4,118,2
ChIJ9_AYFVJrCocRn5OIeCkhnm8,Grill House,38.4823374,-100.8993793,"F4J2+W6 Scott City, KS, USA",4.4,140,2
ChIJd8Fl-rMUCocRAiOqrV-5lcE,Pizza Hut,38.47390999999999,-100.9064146,"F3FV+HC Scott City, KS, USA",3.9,148,1
ChIJFSQzqbAUCocR3J564BbdG0M,Wendy's,38.46946649999999,-100.9062025,"F39V+QG Scott City, KS, USA",4.1,296,1
ChIJkcfWjLMUCocR5vOTnN5VxCA,La Fiesta Mexican Restaurant,38.47385699999999,-100.905518,"F3FV+GQ Scott City, KS, USA",4.2,69,2
