Place ID,Name,Latitude,Longitude,Address,Rating,Ratings count,Price range
ChIJuQ_8IykjxFQRYVwPr2_Tmxo,McMenamins Roseburg Station Pub & Brewery,43.2091667,-123.3483333,"6M52+MM Roseburg, OR, USA",4.1,519,2
ChIJ6UKK0SMjxFQR9iSwyK5BPZU,Subway (Diamond Lk Blvd),43.2131088,-123.3337798,"6M78+6F Roseburg, OR, USA",3.9,118,1
ChIJ-YgZjW0dxFQRhaUOEHBlRe0,Subway,43.3867597,-123.342399,"9MP5+P2 Sutherlin, OR, USA",3.7,245,1
ChIJcxwOaretxlQR5hzREZ-o3jY,Subway,43.53947669999999,-123.288713,"GPQ6+QG Oakland, OR, USA",3.5,33,1
ChIJtelbY9QixFQRHFNoSHACKho,Subway (Harvard Ave),43.2141404,-123.3602762,"6J7Q+MV Roseburg, OR, USA",4.0,103,1
ChIJo5pxWrcixFQRm1x7xC0_u5U,Starbucks,43.23040400000001,-123.370765,"6JJH+5M Roseburg, OR, USA",4.2,399,2
ChIJw7W_Veo7xFQR2Z_H5Eb1KpE,Subway,43.1447447,-123.3826176,"4JV8+VX Roseburg, OR, USA",4.0,137,1
ChIJF193Jt0ixFQRxhJ9ZKnQ1rA,Little Caesars Pizza,43.22349,-123.34674,"6MF3+98 Roseburg, OR, USA",4.1,495,1
ChIJiVlIphI5xFQRKPOtiyJnJw8,Subway,43.12114469999999,-123.4176481,"4HCJ+FW Winston, OR, USA",4.2,153,1
ChIJ49nhW6-89YcRhLMNp6OcBek,Taco Time,43.21364,-123.35865,"6J7R+FG Roseburg, OR, USA",4.0,638,1
ChIJcxwOaretxlQRJ0ZoLywswiw,Denny's,43.5394421,-123.2887696,"GPQ6+QF Oakland, OR, USA",3.5,170,1
ChIJ77mgkZ2mxlQRx7b4VaIGdpA,Papa Murphy's | Take 'N' Bake Pizza,43.2279429,-123.3535923,"6JHW+5H Roseburg, OR, USA",4.5,275,1
ChIJoRefi4CnxlQRhUfpTEPd3Wg,Creekside Gas & Grill,43.3882432,-123.314233,"9MQP+78 Sutherlin, OR, USA",4.4,159,2
ChIJCXBqWrcixFQRFFYfw9GM34g,Panda Express,43.2306501,-123.3709582,"6JJH+7J Roseburg, OR, USA",3.9,505,1
ChIJNc6ag0ycMYYR_a34_srGHlk,Subway,32.8053127,-93.0560769,"RW4V+4H Homer, LA, USA",4.1,90,1
ChIJyZQiIQZfMYYRP-C6fpPo2Ck,Subway,32.9968956,-93.4638153,"XGWP+QF Springhill, LA, USA",4.4,87,1
ChIJs0PUehe7MYYRlmQIvCIqMzE,Subway,32.55931629999999,-92.91422130000001,"H35P+P8 Arcadia, LA, USA",3.9,81,1
ChIJ5b1iOt0wMYYR0r4WDMvWjf8,Subway,32.5552794,-93.6125282,"H94P+4X Haughton, LA, USA",4.1,192,1
ChIJWdwmiGYSMYYR59BVRHAu7Fw,Subway,32.6219334,-93.2741487,"JPCG+Q8 Minden, LA, USA",4.2,181,1
ChIJSYWR_YQNMYYRWY9lnIgJWtA,Ol West BBQ,32.62263449999999,-93.2504343,"JPFX+3R Minden, LA, USA",4.4,270,2
ChIJa8Zc6AdfMYYR-T-YpDr9ZvU,Panda Garden,32.9965515,-93.46074670000002,"XGWQ+JP Springhill, LA, USA",4.1,108,2
ChIJJTVUfsoTMYYREvQZeaep44g,Louisiana Fried Chicken,32.6070775,-93.3013258,"JM4X+RF Minden, LA, USA",4.3,206,1
ChIJ8RAcqoYNMYYR71hXG6UsNzM,Sonic Drive-In,32.62512379999999,-93.2534321,"JPGW+2J Minden, LA, USA",4.1,547,1
ChIJMfsEMkcSMYYRy9JqVAX58tE,Friendz,32.6092948,-93.2833404,"JP58+PM Minden, LA, USA",4.6,58,1
ChIJrR3OlLt2IocRhS_nkvutSR4,El Pinto Restaurant,35.205904,-106.612426,"694Q+92 Albuquerque, NM, USA",4.2,4190,2
ChIJG3e-UIVzIocRrg0pxEZ5IrU,Sadie's of New Mexico,35.1476668,-106.6384645,"49X6+3J Los Ranchos de Albuquerque, NM, USA",4.4,4106,2
ChIJjaFVHE90IocROeWgLic1bI8,Twisters Burgers and Burritos,35.1655467,-106.589636,"5C86+64 Albuquerque, NM, USA",4.2,181,1
ChIJb8h4pAZ0IocRrtKMLEVw2c0,Farm & Table,35.18341599999999,-106.623744,"59MG+9G Albuquerque, NM, USA",4.5,736,2
ChIJD1haQmhxIocRKs_QDw10Jsc,Auntie Anne's,35.1972781,-106.6566554,"58WV+W8 Albuquerque, NM, USA",4.1,22,1
ChIJD1haQmhxIocR5HNQH1JNOdQ,China Wok,35.1987393,-106.6570047,"58XV+F5 Albuquerque, NM, USA",2.2,44,1
ChIJ5yHNhvl0IocRzO75jN-FiHQ,Twin Peaks Restaurant,35.146395,-106.591258,"4CW5+HF Albuquerque, NM, USA",4.4,2183,2
ChIJcdKbbPl0IocRu8ni1YqcOkg,Texas Roadhouse,35.146871,-106.589123,"4CW6+P9 Albuquerque, NM, USA",4.5,4353,2
ChIJv7Fs8tIKIocRtKQ7yG3k7g4,Sbarro,35.1071051,-106.5702173,"4C4H+RW Albuquerque, NM, USA",3.4,23,1
ChIJ8Z4-WP50IocR5GjyNq_pdi8,Budai,35.149597,-106.5847644,"4CX8+R3 Albuquerque, NM, USA",4.2,238,2
ChIJv7Fs8tIKIocRYkFZrPfaFpo,Auntie Anne's,35.1071051,-106.5702173,"4C4H+RW Albuquerque, NM, USA",2.9,13,1
ChIJE9zAGCBzIocRIjz1WJIETac,Subway,35.1180816,-106.674698,"489G+64 Albuquerque, NM, USA",4.2,73,1
ChIJjaFVHE90IocR0NVrk91zAc4,Hello Deli,35.1655583,-106.5905871,"5C85+6Q Albuquerque, NM, USA",4.6,509,1
ChIJ8a-WLVd4IocRDn05rJFIl0I,Subway,35.3199176,-106.5720474,"8C9H+X5 Bernalillo, NM, USA",3.0,68,1
ChIJvfu1qvB0IocRT3QK6bMSGp0,P.F. Chang's,35.1457378,-106.5916809,"4CW5+78 Albuquerque, NM, USA",4.3,1246,2
ChIJ8Z4-WP50IocRCQu2k92FIac,McDonald's,35.14846609999999,-106.5858646,"4CX7+9M Albuquerque, NM, USA",3.7,558,1
ChIJ1UrsGwEBNogReSFCwdwKuQo,Subway,39.66485969999999,-80.8588027,"M47R+WF New Martinsville, WV, USA",4.3,93,1
ChIJm3DaB5TgNYgRiKE70a397u4,Subway,39.9207836,-80.74729459999999,"W7C3+83 Moundsville, WV, USA",3.7,87,1
ChIJlad37gAZNogRRUHNA-NKnIo,Subway,39.7624298,-81.115589,"QV6M+XQ Woodsfield, OH, USA",4.1,63,1
ChIJrZefyZzBSYgRoq9sL0pcB2U,Subway,39.39079270000001,-81.2037989,"9QRW+8F Saint Marys, WV, USA",4.0,44,1
ChIJy7voOsjeNYgROBTgbKELW4c,Subway,40.0115551,-80.74376819999999,"2764+JF Bellaire, OH, USA",4.0,86,1
ChIJH_P5JxFANogR-eW9yLDYyEM,Subway,39.9864583,-81.1784248,"XRPC+HJ Barnesville, OH, USA",3.8,104,1
ChIJM2YqzlvZNYgRTaZO4u9_zyM,Subway,40.03226799999999,-80.7275964,"27JC+WX Benwood, WV, USA",4.3,84,1
ChIJS8v8bJvgNYgR6OzrII-_WqY,DiCarlo's Pizza | Glendale,39.9335903,-80.7525102,"W6MW+CX Glen Dale, WV, USA",4.1,287,1
ChIJN1MCAprgNYgRo1w0DJM_vkI,Buffalo Wild Wings,39.9290299,-80.748986,"W7H2+JC Moundsville, WV, USA",3.8,563,2
ChIJ3eibaawBNogRxY-kwhbjpj4,Subway,39.65656,-80.8595558,"M44R+J5 New Martinsville, WV, USA",4.2,19,1
ChIJwwFSjJDgNYgRvy2rWu-wkSs,DeFelice BrosÂ® Pizza,39.9247492,-80.7503022,"W6FX+VV Moundsville, WV, USA",4.2,133,2
ChIJrfSvEP12NogRvrTwoZCWiho,Subway,40.0686659,-80.8676207,"349J+FX Saint Clairsville, OH, USA",4.1,44,1
ChIJYz4vahEWSogRu55UU6S_bdA,Super Wok,39.2884152,-80.53868,"7FQ6+9G Salem, WV, USA",4.6,85,2
ChIJ9Zs2P7beNYgRMRoOUkle6SY,Roosevelt,40.0134783,-80.74248419999999,"2775+92 Bellaire, OH, USA",4.3,160,1
ChIJnbt_CRx3NogR8-HDGCKEUro,Little Caesars Pizza,40.0753653,-80.87203199999999,"34GH+45 Saint Clairsville, OH, USA",3.9,107,1
ChIJ3yQ8MDBuNogRlzDVGz3dfWo,Subway,40.07186479999999,-80.9660763,"32CM+PH Saint Clairsville, OH, USA",4.2,67,1
ChIJ8Z62Ihl3NogR2uPn-tctmzs,Subway,40.0771256,-80.87326209999999,"34GG+VM Saint Clairsville, OH, USA",4.6,47,1
ChIJLaElESTbNYgRvK4BkvTRHsY,Subway,40.0463034,-80.653792,"28WW+GF Wheeling, WV, USA",3.2,158,1
ChIJeYoOhlPYNYgRAIAXyMQiYb4,Subway,40.070137,-80.76291979999999,"36CP+3R Bridgeport, OH, USA",4.2,103,1
ChIJtfHUcGWe-4gROw4X0BXg1b4,17Hundred90 Inn and Restaurant,32.0768565,-81.0887468,"3WG6+PG Savannah, GA, USA",4.6,1064,2
ChIJuVcvmIPj-ogRTv0SW-8NCOY,Marco's Pizza,31.85222,-81.58013,"VC29+VW Hinesville, GA, USA",4.1,295,1
ChIJv47bj2ae-4gRWlCjeF7YnhM,The Lady and Sons,32.0800786,-81.09286259999999,"3WJ4+2V Savannah, GA, USA",4.1,6095,2
ChIJofzkcWSe-4gR82DLlBwl3mM,Vic's On the River,32.0812819,-81.09031689999999,"3WJ5+GV Savannah, GA, USA",4.5,2574,3
ChIJyUpTwXAJ-4gRjeqlEWz1r7o,Ruby Tuesday,32.0076586,-81.27696809999999,"2P5F+36 Savannah, GA, USA",4.0,1005,2
ChIJy-qgvGme-4gRxkvSS-uFxbo,Mrs. Wilkes Dining Room,32.0726305,-81.09596359999999,"3WF3+3J Savannah, GA, USA",4.8,1896,2
ChIJHafA_6p1-4gRUw1EDHO6pzU,Sarku Japan,32.0026872,-81.1175174,"2V3J+3X Savannah, GA, USA",4.1,130,1
ChIJSZhnp2ae-4gRFNDcNn1NLhY,Moon River Brewing Company,32.080962,-81.09203,"3WJ5+95 Savannah, GA, USA",3.9,1272,2
ChIJ3QgA-3qe-4gREF2BviWb1yo,The Pirates' House,32.07808320000001,-81.0841429,"3WH8+68 Savannah, GA, USA",4.3,5415,2
ChIJI-V008B0-4gRaWVTyxB6lAc,Olive Garden Italian Restaurant,31.9805316,-81.1473281,"XVJ3+63 Savannah, GA, USA",4.2,2366,2
ChIJR_K6s1eh-4gRl_-5FDdBKeI,Ruby Tuesday,32.14157099999999,-81.243274,"4QR4+JM Pooler, GA, USA",4.0,1262,2
ChIJU6NueUKe-4gR-8HsnUX-iA4,Crystal Beer Parlor,32.07349409999999,-81.0978483,"3WF2+9V Savannah, GA, USA",4.6,3604,2
ChIJ_RkUS_S8-4gR6VpRajfKcOk,Subway,32.2746857,-81.225888,"7QFF+VJ Rincon, GA, USA",3.5,55,1
ChIJnVE4Kph1-4gRgkM0A7LRD_I,Cancun Mexican Restaurant,32.0231858,-81.1083012,"2VFR+7M Savannah, GA, USA",4.2,593,1
ChIJySQ7F2ee-4gR_-GdbvM8XUY,Garibaldi's Savannah,32.0805451,-81.0956087,"3WJ3+6Q Savannah, GA, USA",4.4,821,3
ChIJlzwgLm-e-4gRhjSfEIVXcP4,J. Christopher's,32.0744644,-81.0914912,"3WF5+QC Savannah, GA, USA",4.5,1528,2
ChIJD319Mmee-4gRCnSX_roZ9zc,Chart House,32.0822337,-81.09335349999999,"3WJ4+VM Savannah, GA, USA",4.1,958,3
ChIJcTmyVmae-4gR6jU5fYwK8kE,Alligator Soul Restaurant,32.078992,-81.094207,"3WH4+H8 Savannah, GA, USA",4.6,1024,3
